[{"id": "afghanistan-minaret-of-jam", "name": "Minaret of Jam", "country": "Afghanistan", "lat": 34.396556, "lng": 64.516056, "category": "Visit-worthy landmark", "photo": "https://wsrv.nl/?url=https%3A%2F%2Fupload.wikimedia.org%2Fwikipedia%2Fcommons%2F2%2F23%2FJam_afghan_architecture_harirud_brick.jpg&w=800&output=webp&q=80"}, {"id": "afghanistan-bamiyan-valley-buddhas-of-bamiyan", "name": "Bamiyan Valley / Buddhas of Bamiyan", "country": "Afghanistan", "lat": 34.832, "lng": 67.8267, "category": "Natural landmark", "photo": "https://wsrv.nl/?url=https%3A%2F%2Fupload.wikimedia.org%2Fwikipedia%2Fcommons%2F4%2F46%2FBuddha_of_Bamiyan.jpg&w=800&output=webp&q=80"}, {"id": "afghanistan-babur-garden-kabul", "name": "Babur Garden, Kabul", "country": "Afghanistan", "lat": 34.503, "lng": 69.158, "category": "Visit-worthy landmark", "photo": "https://wsrv.nl/?url=https%3A%2F%2Fupload.wikimedia.org%2Fwikipedia%2Fcommons%2Fa%2Fa9%2FGarden_of_Babur_By_Dani.jpg&w=800&output=webp&q=80"}, {"id": "albania-butrint", "name": "Butrint", "country": "Albania", "lat": 39.7475, "lng": 20.020278, "category": "Visit-worthy landmark", "photo": "https://wsrv.nl/?url=https%3A%2F%2Fupload.wikimedia.org%2Fwikipedia%2Fcommons%2Fthumb%2F9%2F9b%2FAmphitheatre_of_Butrint_2009.jpg%2F1280px-Amphitheatre_of_Butrint_2009.jpg&w=800&output=webp&q=80"}, {"id": "albania-berat-castle-and-historic-centre", "name": "Berat Castle and Historic Centre", "country": "Albania", "lat": 40.708, "lng": 19.945, "category": "Architectural landmark", "photo": "https://wsrv.nl/?url=https%3A%2F%2Fupload.wikimedia.org%2Fwikipedia%2Fcommons%2Fthumb%2F5%2F5e%2FBerat_-_Festung_2a_Haupttor.jpg%2F1280px-Berat_-_Festung_2a_Haupttor.jpg&w=800&output=webp&q=80"}, {"id": "albania-gjirokastra-castle", "name": "Gjirokastra Castle", "country": "Albania", "lat": 40.066667, "lng": 20.133333, "category": "Architectural landmark", "photo": "https://wsrv.nl/?url=https%3A%2F%2Fupload.wikimedia.org%2Fwikipedia%2Fcommons%2Fthumb%2F1%2F16%2FGjirokaster_2016-2017.jpg%2F1280px-Gjirokaster_2016-2017.jpg&w=800&output=webp&q=80"}, {"id": "algeria-timgad-roman-ruins", "name": "Timgad Roman Ruins", "country": "Algeria", "lat": 35.484167, "lng": 6.468611, "category": "Archaeological site", "photo": "https://wsrv.nl/?url=https%3A%2F%2Fupload.wikimedia.org%2Fwikipedia%2Fcommons%2Fthumb%2Fc%2Fce%2FTimgad_%252815685889550%2529.jpg%2F1280px-Timgad_%252815685889550%2529.jpg&w=800&output=webp&q=80"}, {"id": "algeria-tipasa-archaeological-park", "name": "Tipasa Archaeological Park", "country": "Algeria", "lat": 36.55, "lng": 2.38333, "category": "Natural landmark", "photo": "https://wsrv.nl/?url=https%3A%2F%2Fupload.wikimedia.org%2Fwikipedia%2Fcommons%2Fthumb%2F7%2F77%2FFlag_of_Algeria.svg%2F1280px-Flag_of_Algeria.svg.png&w=800&output=webp&q=80"}, {"id": "algeria-kasbah-of-algiers", "name": "Kasbah of Algiers", "country": "Algeria", "lat": 36.786944, "lng": 3.060556, "category": "Visit-worthy landmark", "photo": "https://wsrv.nl/?url=https%3A%2F%2Fupload.wikimedia.org%2Fwikipedia%2Fcommons%2Fthumb%2Fd%2Fd4%2FAlgerCasbah.jpg%2F1280px-AlgerCasbah.jpg&w=800&output=webp&q=80"}, {"id": "andorra-casa-de-la-vall", "name": "Casa de la Vall", "country": "Andorra", "lat": 42.506667, "lng": 1.520556, "category": "Visit-worthy landmark", "photo": "https://wsrv.nl/?url=https%3A%2F%2Fupload.wikimedia.org%2Fwikipedia%2Fcommons%2Fthumb%2Fe%2Fe6%2FCasa_de_la_Vall_2015-10.JPG%2F1280px-Casa_de_la_Vall_2015-10.JPG&w=800&output=webp&q=80"}, {"id": "andorra-sant-joan-de-caselles-church", "name": "Sant Joan de Caselles Church", "country": "Andorra", "lat": 42.570833, "lng": 1.607778, "category": "Religious monument", "photo": "https://wsrv.nl/?url=https%3A%2F%2Fupload.wikimedia.org%2Fwikipedia%2Fcommons%2Fthumb%2F3%2F36%2FEsgl%25C3%25A9sia_de_Sant_Joan_de_Caselles_-_10.jpg%2F1280px-Esgl%25C3%25A9sia_de_Sant_Joan_de_Caselles_-_10.jpg&w=800&output=webp&q=80"}, {"id": "andorra-madriu-perafita-claror-valley", "name": "Madriu-Perafita-Claror Valley", "country": "Andorra", "lat": 42.494722, "lng": 1.595556, "category": "Natural landmark", "photo": "https://wsrv.nl/?url=https%3A%2F%2Fupload.wikimedia.org%2Fwikipedia%2Fcommons%2Fc%2Fc9%2FRefuge_perafita_andorra.jpg&w=800&output=webp&q=80"}, {"id": "angola-fortress-of-sao-miguel-luanda", "name": "Fortress of São Miguel, Luanda", "country": "Angola", "lat": -8.8083, "lng": 13.2234, "category": "Architectural landmark", "photo": "https://wsrv.nl/?url=https%3A%2F%2Fupload.wikimedia.org%2Fwikipedia%2Fcommons%2Fthumb%2Fc%2Fc8%2FLuanda-SMiguelFort2.jpg%2F1280px-Luanda-SMiguelFort2.jpg&w=800&output=webp&q=80"}, {"id": "angola-national-museum-of-slavery-morro-da-cruz", "name": "National Museum of Slavery, Morro da Cruz", "country": "Angola", "lat": -8.958, "lng": 13.105, "category": "Civic / cultural landmark", "photo": "https://wsrv.nl/?url=https%3A%2F%2Fupload.wikimedia.org%2Fwikipedia%2Fcommons%2Fthumb%2F9%2F9a%2FMuseu_da_Escravatura_%2528Luanda%252C_Angola%2529.jpg%2F1280px-Museu_da_Escravatura_%2528Luanda%252C_Angola%2529.jpg&w=800&output=webp&q=80"}, {"id": "angola-iron-palace-luanda", "name": "Iron Palace, Luanda", "country": "Angola", "lat": -8.812011, "lng": 13.235551, "category": "Architectural landmark", "photo": "https://wsrv.nl/?url=https%3A%2F%2Fupload.wikimedia.org%2Fwikipedia%2Fcommons%2F6%2F62%2FPal%25C3%25A1cio_de_Ferro.jpg&w=800&output=webp&q=80"}, {"id": "antigua-and-barbuda-nelson-s-dockyard", "name": "Nelson's Dockyard", "country": "Antigua and Barbuda", "lat": 17.06167, "lng": -61.805, "category": "Visit-worthy landmark", "photo": "https://wsrv.nl/?url=https%3A%2F%2Fupload.wikimedia.org%2Fwikipedia%2Fcommons%2Ff%2Ff1%2FNelson%2527s_Dockyard.jpg&w=800&output=webp&q=80"}, {"id": "antigua-and-barbuda-shirley-heights-lookout", "name": "Shirley Heights Lookout", "country": "Antigua and Barbuda", "lat": 17.001, "lng": -61.751, "category": "Visit-worthy landmark", "photo": "https://wsrv.nl/?url=https%3A%2F%2Fupload.wikimedia.org%2Fwikipedia%2Fcommons%2Fthumb%2F2%2F29%2FEnglish_Harbour.jpg%2F1280px-English_Harbour.jpg&w=800&output=webp&q=80"}, {"id": "antigua-and-barbuda-st-john-s-cathedral", "name": "St. John's Cathedral", "country": "Antigua and Barbuda", "lat": 17.116667, "lng": -61.85, "category": "Religious monument", "photo": "https://wsrv.nl/?url=https%3A%2F%2Fupload.wikimedia.org%2Fwikipedia%2Fcommons%2Fthumb%2F7%2F71%2FSt_Johns_Antigua_2012.jpg%2F1280px-St_Johns_Antigua_2012.jpg&w=800&output=webp&q=80"}, {"id": "argentina-obelisco-de-buenos-aires", "name": "Obelisco de Buenos Aires", "country": "Argentina", "lat": -34.603611, "lng": -58.381667, "category": "Visit-worthy landmark", "photo": "https://wsrv.nl/?url=https%3A%2F%2Fupload.wikimedia.org%2Fwikipedia%2Fcommons%2Fthumb%2Ff%2Ffc%2FBuenos_Aires_%252820234294752%2529.jpg%2F1280px-Buenos_Aires_%252820234294752%2529.jpg&w=800&output=webp&q=80"}, {"id": "argentina-casa-rosada", "name": "Casa Rosada", "country": "Argentina", "lat": -34.608056, "lng": -58.370278, "category": "Visit-worthy landmark", "photo": "https://wsrv.nl/?url=https%3A%2F%2Fupload.wikimedia.org%2Fwikipedia%2Fcommons%2Fthumb%2F9%2F95%2FCasa_Rosada_exterior_from_Plaza_de_Mayo.JPG%2F1280px-Casa_Rosada_exterior_from_Plaza_de_Mayo.JPG&w=800&output=webp&q=80"}, {"id": "argentina-cueva-de-las-manos", "name": "Cueva de las Manos", "country": "Argentina", "lat": -47.155833, "lng": -70.657222, "category": "Visit-worthy landmark", "photo": "https://wsrv.nl/?url=https%3A%2F%2Fupload.wikimedia.org%2Fwikipedia%2Fcommons%2Fthumb%2Ff%2Ff4%2FSantaCruz-CuevaManos-P2210651b.jpg%2F1280px-SantaCruz-CuevaManos-P2210651b.jpg&w=800&output=webp&q=80"}, {"id": "armenia-geghard-monastery", "name": "Geghard Monastery", "country": "Armenia", "lat": 40.140425, "lng": 44.818511, "category": "Religious monument", "photo": "https://wsrv.nl/?url=https%3A%2F%2Fupload.wikimedia.org%2Fwikipedia%2Fcommons%2Fthumb%2F7%2F7b%2FMonasterio_de_Geghard%252C_Armenia%252C_2016-10-02%252C_DD_63.jpg%2F1280px-Monasterio_de_Geghard%252C_Armenia%252C_2016-10-02%252C_DD_63.jpg&w=800&output=webp&q=80"}, {"id": "armenia-garni-temple", "name": "Garni Temple", "country": "Armenia", "lat": 40.112421, "lng": 44.730277, "category": "Religious monument", "photo": "https://wsrv.nl/?url=https%3A%2F%2Fupload.wikimedia.org%2Fwikipedia%2Fcommons%2Fthumb%2F2%2F2c%2FGarni_temple_2021_drone.jpg%2F1280px-Garni_temple_2021_drone.jpg&w=800&output=webp&q=80"}, {"id": "armenia-etchmiadzin-cathedral-and-zvartnots", "name": "Etchmiadzin Cathedral and Zvartnots", "country": "Armenia", "lat": 40.172778, "lng": 44.2925, "category": "Religious monument", "photo": "https://wsrv.nl/?url=https%3A%2F%2Fupload.wikimedia.org%2Fwikipedia%2Fcommons%2Fthumb%2F6%2F6f%2F%25D4%25B7%25D5%25BB%25D5%25B4%25D5%25AB%25D5%25A1%25D5%25AE%25D5%25B6%25D5%25AB_%25D5%2584%25D5%25A1%25D5%25B5%25D6%2580_%25D5%258F%25D5%25A1%25D5%25B3%25D5%25A1%25D6%2580.jpg%2F1280px-%25D4%25B7%25D5%25BB%25D5%25B4%25D5%25AB%25D5%25A1%25D5%25AE%25D5%25B6%25D5%25AB_%25D5%2584%25D5%25A1%25D5%25B5%25D6%2580_%25D5%258F%25D5%25A1%25D5%25B3%25D5%25A1%25D6%2580.jpg&w=800&output=webp&q=80"}, {"id": "austria-schonbrunn-palace", "name": "Schönbrunn Palace", "country": "Austria", "lat": 48.184516, "lng": 16.311865, "category": "Architectural landmark", "photo": "https://wsrv.nl/?url=https%3A%2F%2Fupload.wikimedia.org%2Fwikipedia%2Fcommons%2Fthumb%2Fc%2Fc9%2FWien_-_Schloss_Sch%25C3%25B6nbrunn.JPG%2F1280px-Wien_-_Schloss_Sch%25C3%25B6nbrunn.JPG&w=800&output=webp&q=80"}, {"id": "austria-st-stephens-cathedral-vienna", "name": "St. Stephen’s Cathedral, Vienna", "country": "Austria", "lat": 48.2085, "lng": 16.373, "category": "Religious monument", "photo": "https://wsrv.nl/?url=https%3A%2F%2Fupload.wikimedia.org%2Fwikipedia%2Fcommons%2Fthumb%2Fd%2Fdd%2FWien_-_Stephansdom_%25281%2529.JPG%2F1280px-Wien_-_Stephansdom_%25281%2529.JPG&w=800&output=webp&q=80"}, {"id": "austria-hohensalzburg-fortress", "name": "Hohensalzburg Fortress", "country": "Austria", "lat": 47.795, "lng": 13.047222, "category": "Architectural landmark", "photo": "https://wsrv.nl/?url=https%3A%2F%2Fupload.wikimedia.org%2Fwikipedia%2Fcommons%2Fthumb%2Fd%2Fdd%2FSalzburg_-_Festung_Hohensalzburg.JPG%2F1280px-Salzburg_-_Festung_Hohensalzburg.JPG&w=800&output=webp&q=80"}, {"id": "azerbaijan-maiden-tower-baku", "name": "Maiden Tower, Baku", "country": "Azerbaijan", "lat": 40.3661, "lng": 49.8372, "category": "Architectural landmark", "photo": "https://wsrv.nl/?url=https%3A%2F%2Fupload.wikimedia.org%2Fwikipedia%2Fcommons%2Fthumb%2Ff%2Ffc%2FMaiden_tower_IMG_8521.jpg%2F1280px-Maiden_tower_IMG_8521.jpg&w=800&output=webp&q=80"}, {"id": "azerbaijan-palace-of-the-shirvanshahs", "name": "Palace of the Shirvanshahs", "country": "Azerbaijan", "lat": 40.366149, "lng": 49.833443, "category": "Architectural landmark", "photo": "https://wsrv.nl/?url=https%3A%2F%2Fupload.wikimedia.org%2Fwikipedia%2Fcommons%2Fthumb%2F5%2F50%2FPalace_of_Shirvanshahs_common.JPG%2F1280px-Palace_of_Shirvanshahs_common.JPG&w=800&output=webp&q=80"}, {"id": "azerbaijan-gobustan-rock-art-cultural-landscape", "name": "Gobustan Rock Art Cultural Landscape", "country": "Azerbaijan", "lat": 40.125, "lng": 49.375, "category": "Natural landmark", "photo": "https://wsrv.nl/?url=https%3A%2F%2Fupload.wikimedia.org%2Fwikipedia%2Fcommons%2Fthumb%2Ff%2Ff4%2FQobustan.jpg%2F1280px-Qobustan.jpg&w=800&output=webp&q=80"}, {"id": "bahamas-queen-s-staircase-nassau", "name": "Queen's Staircase, Nassau", "country": "Bahamas", "lat": 25.073139, "lng": -77.337667, "category": "Visit-worthy landmark", "photo": "https://wsrv.nl/?url=https%3A%2F%2Fupload.wikimedia.org%2Fwikipedia%2Fcommons%2Fthumb%2F5%2F5d%2FQueen%2527s_staircase%252C_Nassau%252C_Bahamas.jpg%2F1280px-Queen%2527s_staircase%252C_Nassau%252C_Bahamas.jpg&w=800&output=webp&q=80"}, {"id": "bahamas-fort-charlotte-nassau", "name": "Fort Charlotte, Nassau", "country": "Bahamas", "lat": 25.077778, "lng": -77.358611, "category": "Architectural landmark", "photo": "https://wsrv.nl/?url=https%3A%2F%2Fupload.wikimedia.org%2Fwikipedia%2Fcommons%2F5%2F55%2FFort_Charlotte%252C_Nassau%252C_The_Bahamas.jpg&w=800&output=webp&q=80"}, {"id": "bahamas-parliament-square-nassau", "name": "Parliament Square, Nassau", "country": "Bahamas", "lat": 25.0775, "lng": -77.3405, "category": "Civic / cultural landmark", "photo": "https://wsrv.nl/?url=https%3A%2F%2Fupload.wikimedia.org%2Fwikipedia%2Fcommons%2Fthumb%2F8%2F8a%2FCoat_of_arms_of_the_Bahamas.svg%2F1280px-Coat_of_arms_of_the_Bahamas.svg.png&w=800&output=webp&q=80"}, {"id": "bahrain-qal-at-al-bahrain", "name": "Qal'at al-Bahrain", "country": "Bahrain", "lat": 26.233611, "lng": 50.520556, "category": "Visit-worthy landmark", "photo": "https://wsrv.nl/?url=https%3A%2F%2Fupload.wikimedia.org%2Fwikipedia%2Fcommons%2Fthumb%2F8%2F83%2FBahrain_Fort_March_2015.JPG%2F1280px-Bahrain_Fort_March_2015.JPG&w=800&output=webp&q=80"}, {"id": "bahrain-bahrain-pearling-path-muharraq", "name": "Bahrain Pearling Path, Muharraq", "country": "Bahrain", "lat": 26.24128, "lng": 50.61351, "category": "Visit-worthy landmark", "photo": "https://wsrv.nl/?url=https%3A%2F%2Fupload.wikimedia.org%2Fwikipedia%2Fcommons%2Fthumb%2F2%2F21%2FMuharraq_Bayt_Siyadi_1.jpg%2F1280px-Muharraq_Bayt_Siyadi_1.jpg&w=800&output=webp&q=80"}, {"id": "bahrain-al-fateh-grand-mosque", "name": "Al Fateh Grand Mosque", "country": "Bahrain", "lat": 26.218889, "lng": 50.598056, "category": "Religious monument", "photo": "https://wsrv.nl/?url=https%3A%2F%2Fupload.wikimedia.org%2Fwikipedia%2Fcommons%2Fthumb%2F9%2F9d%2FAlFatehMosque.jpg%2F1280px-AlFatehMosque.jpg&w=800&output=webp&q=80"}, {"id": "bangladesh-lalbagh-fort-dhaka", "name": "Lalbagh Fort, Dhaka", "country": "Bangladesh", "lat": 23.82654, "lng": 89.38909, "category": "Architectural landmark", "photo": "https://wsrv.nl/?url=https%3A%2F%2Fupload.wikimedia.org%2Fwikipedia%2Fcommons%2Fthumb%2F4%2F43%2F%25E0%25A6%25B2%25E0%25A6%25BE%25E0%25A6%25B2_%25E0%25A6%2595%25E0%25A7%2587%25E0%25A6%25B2%25E0%25A7%258D%25E0%25A6%25B2%25E0%25A6%25BE%25E0%25A6%25B0_%25E0%25A6%25AE%25E0%25A6%25BE%25E0%25A6%25AF%25E0%25A6%25BC%25E0%25A6%25BE.jpg%2F1280px-%25E0%25A6%25B2%25E0%25A6%25BE%25E0%25A6%25B2_%25E0%25A6%2595%25E0%25A7%2587%25E0%25A6%25B2%25E0%25A7%258D%25E0%25A6%25B2%25E0%25A6%25BE%25E0%25A6%25B0_%25E0%25A6%25AE%25E0%25A6%25BE%25E0%25A6%25AF%25E0%25A6%25BC%25E0%25A6%25BE.jpg&w=800&output=webp&q=80"}, {"id": "bangladesh-historic-mosque-city-of-bagerhat", "name": "Historic Mosque City of Bagerhat", "country": "Bangladesh", "lat": 22.660972, "lng": 89.758556, "category": "Religious monument", "photo": "https://wsrv.nl/?url=https%3A%2F%2Fupload.wikimedia.org%2Fwikipedia%2Fcommons%2Fthumb%2F4%2F4f%2FSixty_Dome_Mosque%252CBagerhat.jpg%2F1280px-Sixty_Dome_Mosque%252CBagerhat.jpg&w=800&output=webp&q=80"}, {"id": "bangladesh-ruins-of-the-buddhist-vihara-at-paharpur", "name": "Ruins of the Buddhist Vihara at Paharpur", "country": "Bangladesh", "lat": 25.031111, "lng": 88.976944, "category": "Archaeological site", "photo": "https://wsrv.nl/?url=https%3A%2F%2Fupload.wikimedia.org%2Fwikipedia%2Fcommons%2Fthumb%2F4%2F42%2FPaharpur_Buddhist_Bihar.jpg%2F1280px-Paharpur_Buddhist_Bihar.jpg&w=800&output=webp&q=80"}, {"id": "barbados-historic-bridgetown-and-its-garrison", "name": "Historic Bridgetown and its Garrison", "country": "Barbados", "lat": 13.096944, "lng": -59.613056, "category": "Architectural landmark", "photo": "https://wsrv.nl/?url=https%3A%2F%2Fupload.wikimedia.org%2Fwikipedia%2Fcommons%2F1%2F1a%2FBridgetown2.jpg&w=800&output=webp&q=80"}, {"id": "barbados-parliament-buildings-bridgetown", "name": "Parliament Buildings, Bridgetown", "country": "Barbados", "lat": 13.096986, "lng": -59.613919, "category": "Architectural landmark", "photo": "https://wsrv.nl/?url=https%3A%2F%2Fupload.wikimedia.org%2Fwikipedia%2Fcommons%2Fthumb%2Fe%2Fe6%2FBarbados%252C_Karibik_-_The_West-Wing_of_the_Parliament_of_Barbados_and_the_Clock_Tower_-_panoramio.jpg%2F1280px-Barbados%252C_Karibik_-_The_West-Wing_of_the_Parliament_of_Barbados_and_the_Clock_Tower_-_panoramio.jpg&w=800&output=webp&q=80"}, {"id": "barbados-george-washington-house-barbados", "name": "George Washington House, Barbados", "country": "Barbados", "lat": 13.081944, "lng": -59.606667, "category": "Visit-worthy landmark", "photo": "https://wsrv.nl/?url=https%3A%2F%2Fupload.wikimedia.org%2Fwikipedia%2Fcommons%2Fthumb%2F0%2F0e%2FGEORGE_WASHINGTON_HOUSE_-_BARBADOS.jpg%2F1280px-GEORGE_WASHINGTON_HOUSE_-_BARBADOS.jpg&w=800&output=webp&q=80"}, {"id": "belarus-mir-castle-complex", "name": "Mir Castle Complex", "country": "Belarus", "lat": 53.451239, "lng": 26.473, "category": "Architectural landmark", "photo": "https://wsrv.nl/?url=https%3A%2F%2Fupload.wikimedia.org%2Fwikipedia%2Fcommons%2Fthumb%2Fd%2Fd6%2F%25D0%259A%25D0%25BE%25D0%25BC%25D0%25BF%25D0%25BB%25D0%25B5%25D0%25BA%25D1%2581_%25D0%259C%25D0%25B8%25D1%2580%25D1%2581%25D0%25BA%25D0%25BE%25D0%25B3%25D0%25BE_%25D0%25B7%25D0%25B0%25D0%25BC%25D0%25BA%25D0%25B0.JPG%2F1280px-%25D0%259A%25D0%25BE%25D0%25BC%25D0%25BF%25D0%25BB%25D0%25B5%25D0%25BA%25D1%2581_%25D0%259C%25D0%25B8%25D1%2580%25D1%2581%25D0%25BA%25D0%25BE%25D0%25B3%25D0%25BE_%25D0%25B7%25D0%25B0%25D0%25BC%25D0%25BA%25D0%25B0.JPG&w=800&output=webp&q=80"}, {"id": "belarus-nesvizh-castle", "name": "Nesvizh Castle", "country": "Belarus", "lat": 53.222878, "lng": 26.691736, "category": "Architectural landmark", "photo": "https://wsrv.nl/?url=https%3A%2F%2Fupload.wikimedia.org%2Fwikipedia%2Fcommons%2F8%2F84%2F%25D0%259D%25D1%258F%25D1%2581%25D0%25B2%25D1%2596%25D0%25B6_%25D1%2596_%25D0%259D%25D1%258F%25D1%2581%25D0%25B2%25D1%2596%25D0%25B6%25D1%2581%25D0%25BA%25D1%2596_%25D0%25B7%25D0%25B0%25D0%25BC%25D0%25B0%25D0%25BA_12.jpg&w=800&output=webp&q=80"}, {"id": "belarus-victory-square-minsk", "name": "Victory Square, Minsk", "country": "Belarus", "lat": 53.908333, "lng": 27.574444, "category": "Civic / cultural landmark", "photo": "https://wsrv.nl/?url=https%3A%2F%2Fupload.wikimedia.org%2Fwikipedia%2Fcommons%2Fthumb%2F9%2F9a%2FVictory-square.jpg%2F1280px-Victory-square.jpg&w=800&output=webp&q=80"}, {"id": "belgium-grand-place-brussels", "name": "Grand-Place, Brussels", "country": "Belgium", "lat": 50.846667, "lng": 4.3525, "category": "Visit-worthy landmark", "photo": "https://wsrv.nl/?url=https%3A%2F%2Fupload.wikimedia.org%2Fwikipedia%2Fcommons%2Fthumb%2F2%2F26%2FGrand-Place%252C_Brussels_-_panorama%252C_June_2018.jpg%2F1280px-Grand-Place%252C_Brussels_-_panorama%252C_June_2018.jpg&w=800&output=webp&q=80"}, {"id": "belgium-atomium-brussels", "name": "Atomium, Brussels", "country": "Belgium", "lat": 50.894722, "lng": 4.341111, "category": "Visit-worthy landmark", "photo": "https://wsrv.nl/?url=https%3A%2F%2Fupload.wikimedia.org%2Fwikipedia%2Fcommons%2Fthumb%2Fc%2Fcf%2FBrussels_-_Atomium_2022.jpg%2F1280px-Brussels_-_Atomium_2022.jpg&w=800&output=webp&q=80"}, {"id": "belgium-belfry-of-bruges", "name": "Belfry of Bruges", "country": "Belgium", "lat": 51.208333, "lng": 3.224722, "category": "Visit-worthy landmark", "photo": "https://wsrv.nl/?url=https%3A%2F%2Fupload.wikimedia.org%2Fwikipedia%2Fcommons%2Fthumb%2F3%2F37%2FBrugge_Belfort_HDR.jpg%2F1280px-Brugge_Belfort_HDR.jpg&w=800&output=webp&q=80"}, {"id": "belize-xunantunich-maya-ruins", "name": "Xunantunich Maya Ruins", "country": "Belize", "lat": 17.089059, "lng": -89.141427, "category": "Archaeological site", "photo": "https://wsrv.nl/?url=https%3A%2F%2Fupload.wikimedia.org%2Fwikipedia%2Fcommons%2Fthumb%2F2%2F29%2FXunantunich_Belize_1_19.jpg%2F1280px-Xunantunich_Belize_1_19.jpg&w=800&output=webp&q=80"}, {"id": "belize-caracol-archaeological-reserve", "name": "Caracol Archaeological Reserve", "country": "Belize", "lat": 16.763889, "lng": -89.1175, "category": "Archaeological site", "photo": "https://wsrv.nl/?url=https%3A%2F%2Fupload.wikimedia.org%2Fwikipedia%2Fcommons%2Fthumb%2F6%2F62%2FPanorama_atop_Caracol.png%2F1280px-Panorama_atop_Caracol.png&w=800&output=webp&q=80"}, {"id": "belize-belize-barrier-reef-reserve-system", "name": "Belize Barrier Reef Reserve System", "country": "Belize", "lat": 17.315556, "lng": -87.534444, "category": "Natural landmark", "photo": "https://wsrv.nl/?url=https%3A%2F%2Fupload.wikimedia.org%2Fwikipedia%2Fcommons%2Fa%2Fa8%2FSatellite_image_of_Belize_in_March_31%252C_2002.jpg&w=800&output=webp&q=80"}, {"id": "benin-royal-palaces-of-abomey", "name": "Royal Palaces of Abomey", "country": "Benin", "lat": 7.18645, "lng": 1.994003, "category": "Architectural landmark", "photo": "https://wsrv.nl/?url=https%3A%2F%2Fupload.wikimedia.org%2Fwikipedia%2Fcommons%2Fthumb%2Fd%2Fd3%2FAbomey_2006_1.jpg%2F1280px-Abomey_2006_1.jpg&w=800&output=webp&q=80"}, {"id": "benin-door-of-no-return-ouidah", "name": "Door of No Return, Ouidah", "country": "Benin", "lat": 7.64094, "lng": 2.0365, "category": "Visit-worthy landmark", "photo": "https://wsrv.nl/?url=https%3A%2F%2Fupload.wikimedia.org%2Fwikipedia%2Fcommons%2Fthumb%2F3%2F33%2FDoor_of_no_return.jpg%2F1280px-Door_of_no_return.jpg&w=800&output=webp&q=80"}, {"id": "benin-temple-of-pythons-ouidah", "name": "Temple of Pythons, Ouidah", "country": "Benin", "lat": 6.366667, "lng": 2.083333, "category": "Religious monument", "photo": "https://wsrv.nl/?url=https%3A%2F%2Fupload.wikimedia.org%2Fwikipedia%2Fcommons%2Fthumb%2F1%2F11%2FEntr%25C3%25A9e_du_Temple_des_Pythons_%2528Ouidah%2529.jpg%2F1280px-Entr%25C3%25A9e_du_Temple_des_Pythons_%2528Ouidah%2529.jpg&w=800&output=webp&q=80"}, {"id": "bhutan-tiger-s-nest-monastery-paro-taktsang", "name": "Tiger's Nest Monastery (Paro Taktsang)", "country": "Bhutan", "lat": 27.491911, "lng": 89.363489, "category": "Religious monument", "photo": "https://wsrv.nl/?url=https%3A%2F%2Fupload.wikimedia.org%2Fwikipedia%2Fcommons%2Fthumb%2Fa%2Fa6%2FParo_Taktsang%252C_Bhutan_%2528edited%2529.jpg%2F1280px-Paro_Taktsang%252C_Bhutan_%2528edited%2529.jpg&w=800&output=webp&q=80"}, {"id": "bhutan-punakha-dzong", "name": "Punakha Dzong", "country": "Bhutan", "lat": 27.581944, "lng": 89.863056, "category": "Visit-worthy landmark", "photo": "https://wsrv.nl/?url=https%3A%2F%2Fupload.wikimedia.org%2Fwikipedia%2Fcommons%2Fthumb%2F5%2F5a%2FPunakha_Dzong%252C_Bhutan_02.jpg%2F1280px-Punakha_Dzong%252C_Bhutan_02.jpg&w=800&output=webp&q=80"}, {"id": "bhutan-buddha-dordenma-thimphu", "name": "Buddha Dordenma, Thimphu", "country": "Bhutan", "lat": 27.4435, "lng": 89.6454, "category": "Visit-worthy landmark", "photo": "https://wsrv.nl/?url=https%3A%2F%2Fupload.wikimedia.org%2Fwikipedia%2Fen%2Fthumb%2F4%2F4e%2FBuddha_Dordenma.jpg%2F1280px-Buddha_Dordenma.jpg&w=800&output=webp&q=80"}, {"id": "bolivia-salar-de-uyuni", "name": "Salar de Uyuni", "country": "Bolivia", "lat": -20.133775, "lng": -67.489133, "category": "Visit-worthy landmark", "photo": "https://wsrv.nl/?url=https%3A%2F%2Fupload.wikimedia.org%2Fwikipedia%2Fcommons%2F4%2F4a%2FSalar_Uyuni_au01.jpg&w=800&output=webp&q=80"}, {"id": "bolivia-tiwanaku-archaeological-site", "name": "Tiwanaku Archaeological Site", "country": "Bolivia", "lat": -16.554722, "lng": -68.673333, "category": "Archaeological site", "photo": "https://wsrv.nl/?url=https%3A%2F%2Fupload.wikimedia.org%2Fwikipedia%2Fcommons%2Fthumb%2F0%2F0c%2FPUERTA_DEL_SOL_TIWANAKU.jpg%2F1280px-PUERTA_DEL_SOL_TIWANAKU.jpg&w=800&output=webp&q=80"}, {"id": "bolivia-fuerte-de-samaipata", "name": "Fuerte de Samaipata", "country": "Bolivia", "lat": -18.178356, "lng": -63.818989, "category": "Visit-worthy landmark", "photo": "https://wsrv.nl/?url=https%3A%2F%2Fupload.wikimedia.org%2Fwikipedia%2Fcommons%2Fthumb%2F6%2F64%2FView_of_Fort_Samaipata_Rock.jpg%2F1280px-View_of_Fort_Samaipata_Rock.jpg&w=800&output=webp&q=80"}, {"id": "bosnia-and-herzegovina-stari-most-mostar", "name": "Stari Most, Mostar", "country": "Bosnia and Herzegovina", "lat": 43.71819, "lng": 18.37632, "category": "Visit-worthy landmark", "photo": "https://wsrv.nl/?url=https%3A%2F%2Fupload.wikimedia.org%2Fwikipedia%2Fcommons%2Fthumb%2Fd%2Fd7%2FMostar_Old_Town_Panorama_2007.jpg%2F1280px-Mostar_Old_Town_Panorama_2007.jpg&w=800&output=webp&q=80"}, {"id": "bosnia-and-herzegovina-mehmed-pasa-sokolovic-bridge-visegrad", "name": "Mehmed Paša Sokolović Bridge, Višegrad", "country": "Bosnia and Herzegovina", "lat": 43.71819, "lng": 18.37632, "category": "Architectural landmark", "photo": "https://wsrv.nl/?url=https%3A%2F%2Fupload.wikimedia.org%2Fwikipedia%2Fcommons%2Fthumb%2F1%2F1d%2FSokollu_Mehmed_Pasha_%2528detail%2529_exploring_the_surroundings_of_Szigetv%25C3%25A1r._N%25C3%25BCzhet%252C_fol._22a.jpg%2F1280px-Sokollu_Mehmed_Pasha_%2528detail%2529_exploring_the_surroundings_of_Szigetv%25C3%25A1r._N%25C3%25BCzhet%252C_fol._22a.jpg&w=800&output=webp&q=80"}, {"id": "bosnia-and-herzegovina-sebilj-fountain-and-bascarsija-sarajevo", "name": "Sebilj Fountain and Baščaršija, Sarajevo", "country": "Bosnia and Herzegovina", "lat": 43.71819, "lng": 18.37632, "category": "Visit-worthy landmark", "photo": "https://wsrv.nl/?url=https%3A%2F%2Fupload.wikimedia.org%2Fwikipedia%2Fcommons%2Fthumb%2F1%2F1d%2FSebilj_%2528by_day%2529.jpg%2F1280px-Sebilj_%2528by_day%2529.jpg&w=800&output=webp&q=80"}, {"id": "botswana-tsodilo-hills", "name": "Tsodilo Hills", "country": "Botswana", "lat": -18.75, "lng": 21.733333, "category": "Visit-worthy landmark", "photo": "https://wsrv.nl/?url=https%3A%2F%2Fupload.wikimedia.org%2Fwikipedia%2Fcommons%2F1%2F17%2FTsodilo_rock_paintings_1.jpg&w=800&output=webp&q=80"}, {"id": "botswana-okavango-delta", "name": "Okavango Delta", "country": "Botswana", "lat": -19.4, "lng": 22.9, "category": "Natural landmark", "photo": "https://wsrv.nl/?url=https%3A%2F%2Fupload.wikimedia.org%2Fwikipedia%2Fcommons%2Fthumb%2Fe%2Fe8%2FOkavango_Delta%252C_Botswana1.jpg%2F1280px-Okavango_Delta%252C_Botswana1.jpg&w=800&output=webp&q=80"}, {"id": "botswana-three-dikgosi-monument-gaborone", "name": "Three Dikgosi Monument, Gaborone", "country": "Botswana", "lat": -24.64492, "lng": 25.90733, "category": "Civic / cultural landmark", "photo": "https://wsrv.nl/?url=https%3A%2F%2Fupload.wikimedia.org%2Fwikipedia%2Fen%2Ff%2Ffb%2F3_Kgosis_Monument_Image_in_Gaborone1.jpeg&w=800&output=webp&q=80"}, {"id": "brunei-sultan-omar-ali-saifuddien-mosque", "name": "Sultan Omar Ali Saifuddien Mosque", "country": "Brunei", "lat": 4.8894, "lng": 114.9392, "category": "Religious monument", "photo": "https://wsrv.nl/?url=https%3A%2F%2Fupload.wikimedia.org%2Fwikipedia%2Fcommons%2Fthumb%2F9%2F98%2FPortrait_of_D.Y.M.M._Maulana_Al-Sultan_Sir_Omar_Ali_Saifuddin_Saadul_Khairi_Waddin.jpg%2F1280px-Portrait_of_D.Y.M.M._Maulana_Al-Sultan_Sir_Omar_Ali_Saifuddin_Saadul_Khairi_Waddin.jpg&w=800&output=webp&q=80"}, {"id": "brunei-jame-asr-hassanil-bolkiah-mosque", "name": "Jame' Asr Hassanil Bolkiah Mosque", "country": "Brunei", "lat": 4.897944, "lng": 114.921778, "category": "Religious monument", "photo": "https://wsrv.nl/?url=https%3A%2F%2Fupload.wikimedia.org%2Fwikipedia%2Fcommons%2Fthumb%2F8%2F81%2FJame%2527Asr_Hassanil_Bolkiah_Mosque_%252818404307540%2529.jpg%2F1280px-Jame%2527Asr_Hassanil_Bolkiah_Mosque_%252818404307540%2529.jpg&w=800&output=webp&q=80"}, {"id": "brunei-kampong-ayer-water-village", "name": "Kampong Ayer Water Village", "country": "Brunei", "lat": 4.8825, "lng": 114.9425, "category": "Visit-worthy landmark", "photo": "https://wsrv.nl/?url=https%3A%2F%2Fupload.wikimedia.org%2Fwikipedia%2Fcommons%2Fthumb%2F5%2F56%2FBN-bsb-kampong-ayer.jpg%2F1280px-BN-bsb-kampong-ayer.jpg&w=800&output=webp&q=80"}, {"id": "bulgaria-rila-monastery", "name": "Rila Monastery", "country": "Bulgaria", "lat": 42.133333, "lng": 23.340278, "category": "Religious monument", "photo": "https://wsrv.nl/?url=https%3A%2F%2Fupload.wikimedia.org%2Fwikipedia%2Fcommons%2Fthumb%2F4%2F46%2FRila_Monastery%252C_August_2013.jpg%2F1280px-Rila_Monastery%252C_August_2013.jpg&w=800&output=webp&q=80"}, {"id": "bulgaria-alexander-nevsky-cathedral-sofia", "name": "Alexander Nevsky Cathedral, Sofia", "country": "Bulgaria", "lat": 42.695833, "lng": 23.332956, "category": "Religious monument", "photo": "https://wsrv.nl/?url=https%3A%2F%2Fupload.wikimedia.org%2Fwikipedia%2Fcommons%2Fthumb%2Fc%2Fc0%2FCatedral_de_Alejandro_Nevski_--_2019_--_Sof%25C3%25ADa%252C_Bulgaria.jpg%2F1280px-Catedral_de_Alejandro_Nevski_--_2019_--_Sof%25C3%25ADa%252C_Bulgaria.jpg&w=800&output=webp&q=80"}, {"id": "bulgaria-madara-rider", "name": "Madara Rider", "country": "Bulgaria", "lat": 43.276694, "lng": 27.119556, "category": "Visit-worthy landmark", "photo": "https://wsrv.nl/?url=https%3A%2F%2Fupload.wikimedia.org%2Fwikipedia%2Fcommons%2Fthumb%2F1%2F18%2FJE%25C5%25B9DZIEC_Z_MADARY.JPG%2F1280px-JE%25C5%25B9DZIEC_Z_MADARY.JPG&w=800&output=webp&q=80"}, {"id": "burkina-faso-ruins-of-loropeni", "name": "Ruins of Loropéni", "country": "Burkina Faso", "lat": 10.310278, "lng": -3.562778, "category": "Archaeological site", "photo": "https://wsrv.nl/?url=https%3A%2F%2Fupload.wikimedia.org%2Fwikipedia%2Fcommons%2Fthumb%2Fa%2Fac%2F2016.05-441-131ap_wall_Lorop%25C3%25A9ni_Ruins_nr.Lorop%25C3%25A9ni%2528Poni_Prv.%2529%252CBF_sun15may2016-1106h.jpg%2F1280px-2016.05-441-131ap_wall_Lorop%25C3%25A9ni_Ruins_nr.Lorop%25C3%25A9ni%2528Poni_Prv.%2529%252CBF_sun15may2016-1106h.jpg&w=800&output=webp&q=80"}, {"id": "burkina-faso-grand-mosque-of-bobo-dioulasso", "name": "Grand Mosque of Bobo-Dioulasso", "country": "Burkina Faso", "lat": 11.183333, "lng": -4.283333, "category": "Religious monument", "photo": "https://wsrv.nl/?url=https%3A%2F%2Fupload.wikimedia.org%2Fwikipedia%2Fcommons%2Fthumb%2Fc%2Fc6%2FBoboDioulasso-Market.JPG%2F1280px-BoboDioulasso-Market.JPG&w=800&output=webp&q=80"}, {"id": "burkina-faso-monument-des-heros-nationaux-ouagadougou", "name": "Monument des Héros Nationaux, Ouagadougou", "country": "Burkina Faso", "lat": -4.374389, "lng": 15.345417, "category": "Civic / cultural landmark", "photo": "https://wsrv.nl/?url=https%3A%2F%2Fupload.wikimedia.org%2Fwikipedia%2Fcommons%2Fa%2Fac%2FPlace_Memorial_auz_Heros_Nationaux_in_Burkina_Faso%252C_2009_%2528cropped%2529.jpg&w=800&output=webp&q=80"}, {"id": "burundi-gishora-drum-sanctuary", "name": "Gishora Drum Sanctuary", "country": "Burundi", "lat": -3.428333, "lng": 29.925, "category": "Visit-worthy landmark", "photo": "https://wsrv.nl/?url=https%3A%2F%2Fupload.wikimedia.org%2Fwikipedia%2Fcommons%2Fthumb%2F9%2F90%2FDioc%25C3%25A8se_Gitega_y.jpg%2F1280px-Dioc%25C3%25A8se_Gitega_y.jpg&w=800&output=webp&q=80"}, {"id": "burundi-livingstonestanley-monument-mugere", "name": "Livingstone–Stanley Monument, Mugere", "country": "Burundi", "lat": -3.482167, "lng": 29.352361, "category": "Civic / cultural landmark", "photo": "https://wsrv.nl/?url=https%3A%2F%2Fupload.wikimedia.org%2Fwikipedia%2Fcommons%2Ff%2Ffd%2FLivingstone_monument_burundi.jpg&w=800&output=webp&q=80"}, {"id": "burundi-national-museum-of-gitega", "name": "National Museum of Gitega", "country": "Burundi", "lat": -3.428333, "lng": 29.925, "category": "Civic / cultural landmark", "photo": "https://wsrv.nl/?url=https%3A%2F%2Fupload.wikimedia.org%2Fwikipedia%2Fcommons%2Fthumb%2F9%2F90%2FDioc%25C3%25A8se_Gitega_y.jpg%2F1280px-Dioc%25C3%25A8se_Gitega_y.jpg&w=800&output=webp&q=80"}, {"id": "cambodia-angkor-wat", "name": "Angkor Wat", "country": "Cambodia", "lat": 13.4125, "lng": 103.866667, "category": "Visit-worthy landmark", "photo": "https://wsrv.nl/?url=https%3A%2F%2Fupload.wikimedia.org%2Fwikipedia%2Fcommons%2Fthumb%2F4%2F41%2FAngkor_Wat.jpg%2F1280px-Angkor_Wat.jpg&w=800&output=webp&q=80"}, {"id": "cambodia-bayon-temple-angkor-thom", "name": "Bayon Temple, Angkor Thom", "country": "Cambodia", "lat": 13.441111, "lng": 103.858611, "category": "Natural landmark", "photo": "https://wsrv.nl/?url=https%3A%2F%2Fupload.wikimedia.org%2Fwikipedia%2Fcommons%2Fthumb%2F2%2F22%2FAngkor_Thom_%2528II%2529.jpg%2F1280px-Angkor_Thom_%2528II%2529.jpg&w=800&output=webp&q=80"}, {"id": "cambodia-royal-palace-phnom-penh", "name": "Royal Palace, Phnom Penh", "country": "Cambodia", "lat": 13.44008, "lng": 103.8586, "category": "Architectural landmark", "photo": "https://wsrv.nl/?url=https%3A%2F%2Fupload.wikimedia.org%2Fwikipedia%2Fcommons%2Fthumb%2F4%2F4c%2FAerial_reconnaissance_view_of_the_Monivong_Bridge%252C_Phnom_Penh_17_April_1975.jpg%2F1280px-Aerial_reconnaissance_view_of_the_Monivong_Bridge%252C_Phnom_Penh_17_April_1975.jpg&w=800&output=webp&q=80"}, {"id": "cameroon-foumban-royal-palace", "name": "Foumban Royal Palace", "country": "Cameroon", "lat": 5.733044, "lng": 10.901154, "category": "Architectural landmark", "photo": "https://wsrv.nl/?url=https%3A%2F%2Fupload.wikimedia.org%2Fwikipedia%2Fcommons%2Fa%2Fa7%2FBamun_sultan_palace.jpg&w=800&output=webp&q=80"}, {"id": "cameroon-reunification-monument-yaounde", "name": "Reunification Monument, Yaoundé", "country": "Cameroon", "lat": 3.85246, "lng": 11.51343, "category": "Civic / cultural landmark", "photo": "https://wsrv.nl/?url=https%3A%2F%2Fupload.wikimedia.org%2Fwikipedia%2Fen%2Fthumb%2Fd%2Fdc%2FMonument_r%25C3%25A9unification_Buea.jpg%2F1280px-Monument_r%25C3%25A9unification_Buea.jpg&w=800&output=webp&q=80"}, {"id": "cameroon-dja-faunal-reserve", "name": "Dja Faunal Reserve", "country": "Cameroon", "lat": 3, "lng": 13, "category": "Visit-worthy landmark", "photo": "https://wsrv.nl/?url=https%3A%2F%2Fupload.wikimedia.org%2Fwikipedia%2Fcommons%2Fthumb%2F8%2F89%2FDja_River_and_pirogue.JPG%2F1280px-Dja_River_and_pirogue.JPG&w=800&output=webp&q=80"}, {"id": "canada-cn-tower-toronto", "name": "CN Tower, Toronto", "country": "Canada", "lat": 43.642556, "lng": -79.387083, "category": "Architectural landmark", "photo": "https://wsrv.nl/?url=https%3A%2F%2Fupload.wikimedia.org%2Fwikipedia%2Fcommons%2Fthumb%2Fb%2Fb7%2FCN_Tower_from_Puente_de_Luz%252C_Toronto%252C_Ontario%252C_2025-08-25_01.jpg%2F500px-CN_Tower_from_Puente_de_Luz%252C_Toronto%252C_Ontario%252C_2025-08-25_01.jpg&w=800&output=webp&q=80"}, {"id": "canada-chateau-frontenac-quebec-city", "name": "Château Frontenac, Québec City", "country": "Canada", "lat": 46.811944, "lng": -71.205, "category": "Visit-worthy landmark", "photo": "https://wsrv.nl/?url=https%3A%2F%2Fupload.wikimedia.org%2Fwikipedia%2Fcommons%2Fthumb%2F8%2F8d%2FCh%25C3%25A2teau_Frontenac_02.jpg%2F1280px-Ch%25C3%25A2teau_Frontenac_02.jpg&w=800&output=webp&q=80"}, {"id": "canada-parliament-hill-ottawa", "name": "Parliament Hill, Ottawa", "country": "Canada", "lat": 45.424722, "lng": -75.699444, "category": "Civic / cultural landmark", "photo": "https://wsrv.nl/?url=https%3A%2F%2Fupload.wikimedia.org%2Fwikipedia%2Fcommons%2Fthumb%2Fb%2Fb5%2FOttawa_-_ON_-_Stadtansicht.jpg%2F1280px-Ottawa_-_ON_-_Stadtansicht.jpg&w=800&output=webp&q=80"}, {"id": "cape-verde-cidade-velha-historic-centre-of-ribeira-grande", "name": "Cidade Velha, Historic Centre of Ribeira Grande", "country": "Cape Verde", "lat": 15.066667, "lng": -23.633333, "category": "Visit-worthy landmark", "photo": "https://wsrv.nl/?url=https%3A%2F%2Fupload.wikimedia.org%2Fwikipedia%2Fcommons%2F0%2F09%2FBela-vista-net-Santiago-map.jpg&w=800&output=webp&q=80"}, {"id": "cape-verde-farol-de-dona-maria-pia-praia", "name": "Farol de Dona Maria Pia, Praia", "country": "Cape Verde", "lat": 14.900417, "lng": -23.509056, "category": "Visit-worthy landmark", "photo": "https://wsrv.nl/?url=https%3A%2F%2Fupload.wikimedia.org%2Fwikipedia%2Fcommons%2Fthumb%2Fa%2Fad%2FFarol_D._Maria_Pia-2.jpg%2F1280px-Farol_D._Maria_Pia-2.jpg&w=800&output=webp&q=80"}, {"id": "cape-verde-presidential-palace-praia", "name": "Presidential Palace, Praia", "country": "Cape Verde", "lat": 14.9164, "lng": -23.5092, "category": "Architectural landmark", "photo": "https://wsrv.nl/?url=https%3A%2F%2Fupload.wikimedia.org%2Fwikipedia%2Fcommons%2Fthumb%2F1%2F16%2FPraia-Pal%25C3%25A1cio_Presidencial_%25281%2529.jpg%2F1280px-Praia-Pal%25C3%25A1cio_Presidencial_%25281%2529.jpg&w=800&output=webp&q=80"}, {"id": "central-african-republic-notre-dame-of-bangui-cathedral", "name": "Notre-Dame of Bangui Cathedral", "country": "Central African Republic", "lat": 4.373333, "lng": 18.562778, "category": "Religious monument", "photo": "https://wsrv.nl/?url=https%3A%2F%2Fupload.wikimedia.org%2Fwikipedia%2Fcommons%2Fthumb%2Fb%2Fb5%2FBangui_collage.png%2F1280px-Bangui_collage.png&w=800&output=webp&q=80"}, {"id": "central-african-republic-barthelemy-boganda-monument-bangui", "name": "Barthélemy Boganda Monument, Bangui", "country": "Central African Republic", "lat": 8.17377, "lng": 20.9651, "category": "Civic / cultural landmark", "photo": "https://wsrv.nl/?url=https%3A%2F%2Fupload.wikimedia.org%2Fwikipedia%2Fcommons%2Fthumb%2F1%2F18%2FFIFA_World_Cup_2010_Uruguay_Ghana.jpg%2F1280px-FIFA_World_Cup_2010_Uruguay_Ghana.jpg&w=800&output=webp&q=80"}, {"id": "central-african-republic-manovo-gounda-st-floris-national-park", "name": "Manovo-Gounda St Floris National Park", "country": "Central African Republic", "lat": 9, "lng": 21.5, "category": "Natural landmark", "photo": "https://wsrv.nl/?url=https%3A%2F%2Fupload.wikimedia.org%2Fwikipedia%2Fcommons%2Fthumb%2F3%2F34%2FManovo.jpg%2F1280px-Manovo.jpg&w=800&output=webp&q=80"}, {"id": "chad-lakes-of-ounianga", "name": "Lakes of Ounianga", "country": "Chad", "lat": 19.055, "lng": 20.505556, "category": "Natural landmark", "photo": "https://wsrv.nl/?url=https%3A%2F%2Fupload.wikimedia.org%2Fwikipedia%2Fcommons%2Fthumb%2F1%2F18%2FOunianga_Serir.jpg%2F1280px-Ounianga_Serir.jpg&w=800&output=webp&q=80"}, {"id": "chad-grand-mosque-of-n-djamena", "name": "Grand Mosque of N'Djamena", "country": "Chad", "lat": 12.11042, "lng": 15.05083, "category": "Religious monument", "photo": "https://wsrv.nl/?url=https%3A%2F%2Fupload.wikimedia.org%2Fwikipedia%2Fcommons%2Ff%2Ffd%2FMosqu%25C3%25A9e_Roi_Fay%25C3%25A7al_de_N%2527djamena.jpg&w=800&output=webp&q=80"}, {"id": "chad-al-mouna-cultural-center-n-djamena", "name": "Al-Mouna Cultural Center, N'Djamena", "country": "Chad", "lat": 12.105278, "lng": 15.044722, "category": "Visit-worthy landmark", "photo": "https://wsrv.nl/?url=https%3A%2F%2Fupload.wikimedia.org%2Fwikipedia%2Fcommons%2Fthumb%2F2%2F2e%2FBuilding_of_National_Assembly_DJAMENA.jpg%2F1280px-Building_of_National_Assembly_DJAMENA.jpg&w=800&output=webp&q=80"}, {"id": "chile-moai-of-rapa-nui-easter-island", "name": "Moai of Rapa Nui / Easter Island", "country": "Chile", "lat": -34.57815, "lng": -84.53315, "category": "Natural landmark", "photo": "https://wsrv.nl/?url=https%3A%2F%2Fupload.wikimedia.org%2Fwikipedia%2Fcommons%2F4%2F4a%2FRapanookee_vona.jpg&w=800&output=webp&q=80"}, {"id": "chile-la-moneda-palace-santiago", "name": "La Moneda Palace, Santiago", "country": "Chile", "lat": -33.443018, "lng": -70.65387, "category": "Architectural landmark", "photo": "https://wsrv.nl/?url=https%3A%2F%2Fupload.wikimedia.org%2Fwikipedia%2Fcommons%2Fthumb%2F2%2F21%2FPalacio_de_La_Moneda_-_miguelreflex.jpg%2F1280px-Palacio_de_La_Moneda_-_miguelreflex.jpg&w=800&output=webp&q=80"}, {"id": "chile-churches-of-chiloe", "name": "Churches of Chiloé", "country": "Chile", "lat": -34.57815, "lng": -84.53315, "category": "Religious monument", "photo": "https://wsrv.nl/?url=https%3A%2F%2Fupload.wikimedia.org%2Fwikipedia%2Fcommons%2Fthumb%2F6%2F62%2FCastro%252C_Chile_-_panoramio_%252816%2529.jpg%2F1280px-Castro%252C_Chile_-_panoramio_%252816%2529.jpg&w=800&output=webp&q=80"}, {"id": "china-great-wall-of-china", "name": "Great Wall of China", "country": "China", "lat": 40.431389, "lng": 116.564444, "category": "Architectural landmark", "photo": "https://wsrv.nl/?url=https%3A%2F%2Fupload.wikimedia.org%2Fwikipedia%2Fcommons%2Fthumb%2F2%2F23%2FThe_Great_Wall_of_China_at_Jinshanling-edit.jpg%2F1280px-The_Great_Wall_of_China_at_Jinshanling-edit.jpg&w=800&output=webp&q=80"}, {"id": "china-forbidden-city-beijing", "name": "Forbidden City, Beijing", "country": "China", "lat": 39.915833, "lng": 116.390833, "category": "Visit-worthy landmark", "photo": "https://wsrv.nl/?url=https%3A%2F%2Fupload.wikimedia.org%2Fwikipedia%2Fcommons%2Fthumb%2Fe%2Fef%2FThe_Forbidden_City_-_View_from_Coal_Hill.jpg%2F1280px-The_Forbidden_City_-_View_from_Coal_Hill.jpg&w=800&output=webp&q=80"}, {"id": "china-terracotta-army-xian", "name": "Terracotta Army, Xi’an", "country": "China", "lat": 34.385, "lng": 109.273056, "category": "Visit-worthy landmark", "photo": "https://wsrv.nl/?url=https%3A%2F%2Fupload.wikimedia.org%2Fwikipedia%2Fcommons%2Fthumb%2F8%2F88%2F51714-Terracota-Army.jpg%2F1280px-51714-Terracota-Army.jpg&w=800&output=webp&q=80"}, {"id": "colombia-castillo-san-felipe-de-barajas-cartagena", "name": "Castillo San Felipe de Barajas, Cartagena", "country": "Colombia", "lat": 10.4225, "lng": -75.5392, "category": "Visit-worthy landmark", "photo": "https://wsrv.nl/?url=https%3A%2F%2Fupload.wikimedia.org%2Fwikipedia%2Fcommons%2Fthumb%2Fb%2Fbc%2F62_-_Carthag%25C3%25A8ne_-_D%25C3%25A9cembre_2008.jpg%2F1280px-62_-_Carthag%25C3%25A8ne_-_D%25C3%25A9cembre_2008.jpg&w=800&output=webp&q=80"}, {"id": "colombia-san-agustin-archaeological-park", "name": "San Agustín Archaeological Park", "country": "Colombia", "lat": 1.916667, "lng": -76.233333, "category": "Natural landmark", "photo": "https://wsrv.nl/?url=https%3A%2F%2Fupload.wikimedia.org%2Fwikipedia%2Fcommons%2Fthumb%2F7%2F75%2FParque_Arqueol%25C3%25B3gico_de_San_Agust%25C3%25ADn-Mesita_A_06.jpg%2F1280px-Parque_Arqueol%25C3%25B3gico_de_San_Agust%25C3%25ADn-Mesita_A_06.jpg&w=800&output=webp&q=80"}, {"id": "colombia-salt-cathedral-of-zipaquira", "name": "Salt Cathedral of Zipaquirá", "country": "Colombia", "lat": 5.01876, "lng": -74.0093, "category": "Religious monument", "photo": "https://wsrv.nl/?url=https%3A%2F%2Fupload.wikimedia.org%2Fwikipedia%2Fcommons%2Fthumb%2Fc%2Fc6%2FThe_creation_of_man_-_Zipaquira.JPG%2F1280px-The_creation_of_man_-_Zipaquira.JPG&w=800&output=webp&q=80"}, {"id": "comoros-old-friday-mosque-moroni", "name": "Old Friday Mosque, Moroni", "country": "Comoros", "lat": -11.699, "lng": 43.256, "category": "Religious monument", "photo": "https://wsrv.nl/?url=https%3A%2F%2Fupload.wikimedia.org%2Fwikipedia%2Fcommons%2Fthumb%2F9%2F94%2FMoroni-Harbour.jpg%2F1280px-Moroni-Harbour.jpg&w=800&output=webp&q=80"}, {"id": "comoros-iconi-friday-mosque", "name": "Iconi Friday Mosque", "country": "Comoros", "lat": -12.155, "lng": 44.245, "category": "Religious monument", "photo": "https://wsrv.nl/?url=https%3A%2F%2Fupload.wikimedia.org%2Fwikipedia%2Fcommons%2F5%2F58%2FTribune_Ouest_Malouzini.jpg&w=800&output=webp&q=80"}, {"id": "comoros-karthala-volcano", "name": "Karthala Volcano", "country": "Comoros", "lat": -11.76028, "lng": 43.35306, "category": "Natural landmark", "photo": "https://wsrv.nl/?url=https%3A%2F%2Fupload.wikimedia.org%2Fwikipedia%2Fcommons%2F8%2F8e%2FMount_Karthala_%252811000398163%2529.jpg&w=800&output=webp&q=80"}, {"id": "costa-rica-pre-columbian-stone-spheres-of-the-diquis", "name": "Pre-Columbian Stone Spheres of the Diquís", "country": "Costa Rica", "lat": 6.39207, "lng": -86.56898, "category": "Visit-worthy landmark", "photo": "https://wsrv.nl/?url=https%3A%2F%2Fupload.wikimedia.org%2Fwikipedia%2Fcommons%2F9%2F94%2FParque_de_las_Esferas_de_Costa_Rica.JPG&w=800&output=webp&q=80"}, {"id": "costa-rica-teatro-nacional-de-costa-rica", "name": "Teatro Nacional de Costa Rica", "country": "Costa Rica", "lat": 9.933133, "lng": -84.077017, "category": "Visit-worthy landmark", "photo": "https://wsrv.nl/?url=https%3A%2F%2Fupload.wikimedia.org%2Fwikipedia%2Fcommons%2Fthumb%2F6%2F69%2FCosta_Rica-Teatro_Nacional.JPG%2F1280px-Costa_Rica-Teatro_Nacional.JPG&w=800&output=webp&q=80"}, {"id": "costa-rica-cocos-island-national-park", "name": "Cocos Island National Park", "country": "Costa Rica", "lat": 5.528056, "lng": -87.061111, "category": "Natural landmark", "photo": "https://wsrv.nl/?url=https%3A%2F%2Fupload.wikimedia.org%2Fwikipedia%2Fcommons%2F9%2F99%2FIsla_del_coco.jpg&w=800&output=webp&q=80"}, {"id": "croatia-dubrovnik-old-city-walls", "name": "Dubrovnik Old City Walls", "country": "Croatia", "lat": 43.11491, "lng": 16.99389, "category": "Architectural landmark", "photo": "https://wsrv.nl/?url=https%3A%2F%2Fupload.wikimedia.org%2Fwikipedia%2Fcommons%2Fthumb%2F1%2F1b%2FDubrovnik_s_24.jpg%2F1280px-Dubrovnik_s_24.jpg&w=800&output=webp&q=80"}, {"id": "croatia-diocletians-palace-split", "name": "Diocletian’s Palace, Split", "country": "Croatia", "lat": 43.508333, "lng": 16.44, "category": "Architectural landmark", "photo": "https://wsrv.nl/?url=https%3A%2F%2Fupload.wikimedia.org%2Fwikipedia%2Fcommons%2Fthumb%2Fd%2Fd8%2FCroatia-01239_-_The_Peristil_%25289551533404%2529.jpg%2F1280px-Croatia-01239_-_The_Peristil_%25289551533404%2529.jpg&w=800&output=webp&q=80"}, {"id": "croatia-plitvice-lakes-national-park", "name": "Plitvice Lakes National Park", "country": "Croatia", "lat": 44.880556, "lng": 15.616111, "category": "Natural landmark", "photo": "https://wsrv.nl/?url=https%3A%2F%2Fupload.wikimedia.org%2Fwikipedia%2Fcommons%2Fthumb%2F3%2F39%2FView_in_Plitvice_Lakes_National_Park.jpg%2F1280px-View_in_Plitvice_Lakes_National_Park.jpg&w=800&output=webp&q=80"}, {"id": "cuba-old-havana-and-its-fortifications", "name": "Old Havana and its Fortifications", "country": "Cuba", "lat": 23.135944, "lng": -82.358333, "category": "Architectural landmark", "photo": "https://wsrv.nl/?url=https%3A%2F%2Fupload.wikimedia.org%2Fwikipedia%2Fcommons%2Fthumb%2F3%2F3b%2FHavana_Map_-_Habana_Vieja.png%2F1280px-Havana_Map_-_Habana_Vieja.png&w=800&output=webp&q=80"}, {"id": "cuba-castillo-de-la-real-fuerza", "name": "Castillo de la Real Fuerza", "country": "Cuba", "lat": 22.0475, "lng": -80.69602, "category": "Visit-worthy landmark", "photo": "https://wsrv.nl/?url=https%3A%2F%2Fupload.wikimedia.org%2Fwikipedia%2Fcommons%2Fthumb%2Fe%2Fe6%2FParte_lateral_del_Castillo_de_la_Real_Fuerza.jpg%2F1280px-Parte_lateral_del_Castillo_de_la_Real_Fuerza.jpg&w=800&output=webp&q=80"}, {"id": "cuba-vinales-valley", "name": "Viñales Valley", "country": "Cuba", "lat": 22.616667, "lng": -83.716667, "category": "Natural landmark", "photo": "https://wsrv.nl/?url=https%3A%2F%2Fupload.wikimedia.org%2Fwikipedia%2Fcommons%2Fthumb%2Fc%2Fca%2FVi%25C3%25B1ales_Valley.jpg%2F1280px-Vi%25C3%25B1ales_Valley.jpg&w=800&output=webp&q=80"}, {"id": "cyprus-paphos-archaeological-park", "name": "Paphos Archaeological Park", "country": "Cyprus", "lat": 34.755667, "lng": 32.404167, "category": "Natural landmark", "photo": "https://wsrv.nl/?url=https%3A%2F%2Fupload.wikimedia.org%2Fwikipedia%2Fcommons%2Fthumb%2F7%2F72%2FPaphos_panorama_-_Cyprus_-_3_May_2015.jpg%2F1280px-Paphos_panorama_-_Cyprus_-_3_May_2015.jpg&w=800&output=webp&q=80"}, {"id": "cyprus-kykkos-monastery", "name": "Kykkos Monastery", "country": "Cyprus", "lat": 34.984, "lng": 32.741, "category": "Religious monument", "photo": "https://wsrv.nl/?url=https%3A%2F%2Fupload.wikimedia.org%2Fwikipedia%2Fcommons%2Fthumb%2F6%2F6d%2FKykkos_monastery_from_the_air.jpg%2F1280px-Kykkos_monastery_from_the_air.jpg&w=800&output=webp&q=80"}, {"id": "cyprus-choirokoitia", "name": "Choirokoitia", "country": "Cyprus", "lat": 34.796389, "lng": 33.336389, "category": "Visit-worthy landmark", "photo": "https://wsrv.nl/?url=https%3A%2F%2Fupload.wikimedia.org%2Fwikipedia%2Fcommons%2Fthumb%2Fe%2Fea%2FKhirokitia_near_Larnaca_01-2017_img7.jpg%2F1280px-Khirokitia_near_Larnaca_01-2017_img7.jpg&w=800&output=webp&q=80"}, {"id": "czechia-charles-bridge-prague", "name": "Charles Bridge, Prague", "country": "Czechia", "lat": 50.0875, "lng": 14.421389, "category": "Architectural landmark", "photo": "https://wsrv.nl/?url=https%3A%2F%2Fupload.wikimedia.org%2Fwikipedia%2Fcommons%2Fthumb%2Fa%2Fa7%2FPrague_%25286365119737%2529.jpg%2F1280px-Prague_%25286365119737%2529.jpg&w=800&output=webp&q=80"}, {"id": "czechia-prague-castle", "name": "Prague Castle", "country": "Czechia", "lat": 50.491, "lng": 14.624, "category": "Architectural landmark", "photo": "https://wsrv.nl/?url=https%3A%2F%2Fupload.wikimedia.org%2Fwikipedia%2Fcommons%2Fthumb%2Fa%2Fa7%2FPrague_%25286365119737%2529.jpg%2F1280px-Prague_%25286365119737%2529.jpg&w=800&output=webp&q=80"}, {"id": "czechia-cesky-krumlov-historic-centre", "name": "Český Krumlov Historic Centre", "country": "Czechia", "lat": 49.75, "lng": 15.5, "category": "Visit-worthy landmark", "photo": "https://wsrv.nl/?url=https%3A%2F%2Fupload.wikimedia.org%2Fwikipedia%2Fcommons%2Fthumb%2Fc%2Fcb%2FFlag_of_the_Czech_Republic.svg%2F1280px-Flag_of_the_Czech_Republic.svg.png&w=800&output=webp&q=80"}, {"id": "dr-congo-virunga-national-park", "name": "Virunga National Park", "country": "DR Congo", "lat": -0.916667, "lng": 29.166667, "category": "Natural landmark", "photo": "https://wsrv.nl/?url=https%3A%2F%2Fupload.wikimedia.org%2Fwikipedia%2Fcommons%2Fthumb%2F2%2F2b%2FVirunga_National_Park-107997.jpg%2F1280px-Virunga_National_Park-107997.jpg&w=800&output=webp&q=80"}, {"id": "dr-congo-garamba-national-park", "name": "Garamba National Park", "country": "DR Congo", "lat": 4, "lng": 29.25, "category": "Natural landmark", "photo": "https://wsrv.nl/?url=https%3A%2F%2Fupload.wikimedia.org%2Fwikipedia%2Fcommons%2Fthumb%2F6%2F6f%2FFlag_of_the_Democratic_Republic_of_the_Congo.svg%2F1280px-Flag_of_the_Democratic_Republic_of_the_Congo.svg.png&w=800&output=webp&q=80"}, {"id": "dr-congo-okapi-wildlife-reserve", "name": "Okapi Wildlife Reserve", "country": "DR Congo", "lat": 2, "lng": 28.5, "category": "Visit-worthy landmark", "photo": "https://wsrv.nl/?url=https%3A%2F%2Fupload.wikimedia.org%2Fwikipedia%2Fcommons%2Fthumb%2F8%2F8f%2FEpulu_Okapi_Reserve.jpg%2F1280px-Epulu_Okapi_Reserve.jpg&w=800&output=webp&q=80"}, {"id": "denmark-the-little-mermaid-copenhagen", "name": "The Little Mermaid, Copenhagen", "country": "Denmark", "lat": 55.692861, "lng": 12.599278, "category": "Visit-worthy landmark", "photo": "https://wsrv.nl/?url=https%3A%2F%2Fupload.wikimedia.org%2Fwikipedia%2Fen%2Fthumb%2F7%2F7a%2FCopenhagen_-_the_little_mermaid_statue_-_2013.jpg%2F1280px-Copenhagen_-_the_little_mermaid_statue_-_2013.jpg&w=800&output=webp&q=80"}, {"id": "denmark-kronborg-castle", "name": "Kronborg Castle", "country": "Denmark", "lat": 56.038611, "lng": 12.621944, "category": "Architectural landmark", "photo": "https://wsrv.nl/?url=https%3A%2F%2Fupload.wikimedia.org%2Fwikipedia%2Fcommons%2Fthumb%2Ff%2Ff5%2FKronborg_002.JPG%2F1280px-Kronborg_002.JPG&w=800&output=webp&q=80"}, {"id": "denmark-roskilde-cathedral", "name": "Roskilde Cathedral", "country": "Denmark", "lat": 55.642778, "lng": 12.08, "category": "Religious monument", "photo": "https://wsrv.nl/?url=https%3A%2F%2Fupload.wikimedia.org%2Fwikipedia%2Fcommons%2Fthumb%2Fd%2Fd9%2FRoskilde_Cathedral_aerial_crop.jpg%2F1280px-Roskilde_Cathedral_aerial_crop.jpg&w=800&output=webp&q=80"}, {"id": "djibouti-lake-assal", "name": "Lake Assal", "country": "Djibouti", "lat": 11.65, "lng": 42.416667, "category": "Natural landmark", "photo": "https://wsrv.nl/?url=https%3A%2F%2Fupload.wikimedia.org%2Fwikipedia%2Fcommons%2Fb%2Fb5%2FLake_Assal_NASA.jpg&w=800&output=webp&q=80"}, {"id": "djibouti-hamoudi-mosque-djibouti-city", "name": "Hamoudi Mosque, Djibouti City", "country": "Djibouti", "lat": 11.592361, "lng": 43.146083, "category": "Religious monument", "photo": "https://wsrv.nl/?url=https%3A%2F%2Fupload.wikimedia.org%2Fwikipedia%2Fcommons%2F0%2F06%2FHamoudi_Mosque_%2528210510633%2529.jpeg&w=800&output=webp&q=80"}, {"id": "djibouti-people-s-palace-djibouti-city", "name": "People's Palace, Djibouti City", "country": "Djibouti", "lat": 11.594444, "lng": 43.148056, "category": "Architectural landmark", "photo": "https://wsrv.nl/?url=https%3A%2F%2Fupload.wikimedia.org%2Fwikipedia%2Fcommons%2F2%2F26%2FDjibcapital.jpg&w=800&output=webp&q=80"}, {"id": "dominica-morne-trois-pitons-national-park", "name": "Morne Trois Pitons National Park", "country": "Dominica", "lat": 15.325, "lng": -61.316667, "category": "Natural landmark", "photo": "https://wsrv.nl/?url=https%3A%2F%2Fupload.wikimedia.org%2Fwikipedia%2Fcommons%2Fthumb%2F7%2F74%2FDominica_Hiking_Path.JPG%2F1280px-Dominica_Hiking_Path.JPG&w=800&output=webp&q=80"}, {"id": "dominica-boiling-lake", "name": "Boiling Lake", "country": "Dominica", "lat": 15.318333, "lng": -61.294167, "category": "Natural landmark", "photo": "https://wsrv.nl/?url=https%3A%2F%2Fupload.wikimedia.org%2Fwikipedia%2Fcommons%2Fthumb%2F6%2F61%2FDominica_Boiling_Lake.jpg%2F1280px-Dominica_Boiling_Lake.jpg&w=800&output=webp&q=80"}, {"id": "dominica-fort-shirley-cabrits-national-park", "name": "Fort Shirley, Cabrits National Park", "country": "Dominica", "lat": 15.5834, "lng": -61.4735, "category": "Natural landmark", "photo": "https://wsrv.nl/?url=https%3A%2F%2Fupload.wikimedia.org%2Fwikipedia%2Fcommons%2F6%2F68%2FTanetane-Dominica.jpg&w=800&output=webp&q=80"}, {"id": "dominican-republic-colonial-city-of-santo-domingo", "name": "Colonial City of Santo Domingo", "country": "Dominican Republic", "lat": 18.483333, "lng": -69.916667, "category": "Visit-worthy landmark", "photo": "https://wsrv.nl/?url=https%3A%2F%2Fupload.wikimedia.org%2Fwikipedia%2Fcommons%2Fthumb%2F4%2F46%2FCalle_las_Damas%252C_Santo_Domingo%252C_Zona_Colonial.jpg%2F1280px-Calle_las_Damas%252C_Santo_Domingo%252C_Zona_Colonial.jpg&w=800&output=webp&q=80"}, {"id": "dominican-republic-alcazar-de-colon", "name": "Alcázar de Colón", "country": "Dominican Republic", "lat": 18.4775, "lng": -69.8828, "category": "Visit-worthy landmark", "photo": "https://wsrv.nl/?url=https%3A%2F%2Fupload.wikimedia.org%2Fwikipedia%2Fcommons%2Fthumb%2Fb%2Fbd%2FMaison_du_gouverneur_Don_Diego_Colomb.jpg%2F1280px-Maison_du_gouverneur_Don_Diego_Colomb.jpg&w=800&output=webp&q=80"}, {"id": "dominican-republic-faro-a-colon", "name": "Faro a Colón", "country": "Dominican Republic", "lat": 18.47861, "lng": -69.86816, "category": "Visit-worthy landmark", "photo": "https://wsrv.nl/?url=https%3A%2F%2Fupload.wikimedia.org%2Fwikipedia%2Fcommons%2Fthumb%2Fb%2Fba%2FSanto_Domingo.El_Faro_a_Col%25C3%25B3n.20170402.jpg%2F1280px-Santo_Domingo.El_Faro_a_Col%25C3%25B3n.20170402.jpg&w=800&output=webp&q=80"}, {"id": "ecuador-historic-centre-of-quito", "name": "Historic Centre of Quito", "country": "Ecuador", "lat": -0.22, "lng": -78.5125, "category": "Visit-worthy landmark", "photo": "https://wsrv.nl/?url=https%3A%2F%2Fupload.wikimedia.org%2Fwikipedia%2Fcommons%2Fthumb%2F5%2F5b%2FFACHADA_ASAMBLEA_NACIONAL._QUITO%252C_20_DE_FEBRERO_2020._01.jpg%2F1280px-FACHADA_ASAMBLEA_NACIONAL._QUITO%252C_20_DE_FEBRERO_2020._01.jpg&w=800&output=webp&q=80"}, {"id": "ecuador-mitad-del-mundo-monument", "name": "Mitad del Mundo Monument", "country": "Ecuador", "lat": -0.002222, "lng": -78.455833, "category": "Civic / cultural landmark", "photo": "https://wsrv.nl/?url=https%3A%2F%2Fupload.wikimedia.org%2Fwikipedia%2Fcommons%2Fthumb%2F0%2F05%2FMitad_del_Mundo%252C_Quito%252C_Ecuador%252C_2015-07-22%252C_DD_15.JPG%2F1280px-Mitad_del_Mundo%252C_Quito%252C_Ecuador%252C_2015-07-22%252C_DD_15.JPG&w=800&output=webp&q=80"}, {"id": "ecuador-galapagos-islands", "name": "Galápagos Islands", "country": "Ecuador", "lat": -0.5, "lng": -90.5, "category": "Natural landmark", "photo": "https://wsrv.nl/?url=https%3A%2F%2Fupload.wikimedia.org%2Fwikipedia%2Fcommons%2Fthumb%2F6%2F64%2FLobo_marino_%2528Zalophus_californianus_wollebaeki%2529%252C_Punta_Pitt%252C_isla_de_San_Crist%25C3%25B3bal%252C_islas_Gal%25C3%25A1pagos%252C_Ecuador%252C_2015-07-24%252C_DD_11.JPG%2F1280px-Lobo_marino_%2528Zalophus_californianus_wollebaeki%2529%252C_Punta_Pitt%252C_isla_de_San_Crist%25C3%25B3bal%252C_islas_Gal%25C3%25A1pagos%252C_Ecuador%252C_2015-07-24%252C_DD_11.JPG&w=800&output=webp&q=80"}, {"id": "el-salvador-joya-de-ceren-archaeological-site", "name": "Joya de Cerén Archaeological Site", "country": "El Salvador", "lat": 13.8275, "lng": -89.356111, "category": "Archaeological site", "photo": "https://wsrv.nl/?url=https%3A%2F%2Fupload.wikimedia.org%2Fwikipedia%2Fcommons%2Fthumb%2F3%2F35%2FES_Joya_Ceren_05_2012_Estructura_9_Area_2_Tamazcal_wide_angle_1479.JPG%2F1280px-ES_Joya_Ceren_05_2012_Estructura_9_Area_2_Tamazcal_wide_angle_1479.JPG&w=800&output=webp&q=80"}, {"id": "el-salvador-santa-ana-cathedral", "name": "Santa Ana Cathedral", "country": "El Salvador", "lat": 13.995, "lng": -89.556111, "category": "Religious monument", "photo": "https://wsrv.nl/?url=https%3A%2F%2Fupload.wikimedia.org%2Fwikipedia%2Fcommons%2F0%2F0b%2FSanta_Ana_ES_Photomontage.jpg&w=800&output=webp&q=80"}, {"id": "el-salvador-monumento-al-divino-salvador-del-mundo", "name": "Monumento al Divino Salvador del Mundo", "country": "El Salvador", "lat": 13.701389, "lng": -89.224444, "category": "Civic / cultural landmark", "photo": "https://wsrv.nl/?url=https%3A%2F%2Fupload.wikimedia.org%2Fwikipedia%2Fcommons%2F4%2F4f%2FSalvadordelmundo.jpg&w=800&output=webp&q=80"}, {"id": "equatorial-guinea-santa-isabel-cathedral-malabo", "name": "Santa Isabel Cathedral, Malabo", "country": "Equatorial Guinea", "lat": 3.745556, "lng": 8.774444, "category": "Religious monument", "photo": "https://wsrv.nl/?url=https%3A%2F%2Fupload.wikimedia.org%2Fwikipedia%2Fcommons%2Fthumb%2F7%2F74%2FHotel_de_Federaciones_02.jpg%2F1280px-Hotel_de_Federaciones_02.jpg&w=800&output=webp&q=80"}, {"id": "equatorial-guinea-basilica-of-the-immaculate-conception-mongomo", "name": "Basilica of the Immaculate Conception, Mongomo", "country": "Equatorial Guinea", "lat": 1.622242, "lng": 11.298897, "category": "Religious monument", "photo": "https://wsrv.nl/?url=https%3A%2F%2Fupload.wikimedia.org%2Fwikipedia%2Fcommons%2Fc%2Fc6%2FStade-Mongomo.jpg&w=800&output=webp&q=80"}, {"id": "equatorial-guinea-pico-basile", "name": "Pico Basilé", "country": "Equatorial Guinea", "lat": 3.587778, "lng": 8.761667, "category": "Visit-worthy landmark", "photo": "https://wsrv.nl/?url=https%3A%2F%2Fupload.wikimedia.org%2Fwikipedia%2Fcommons%2Fthumb%2F1%2F15%2FPico_Basil%25C3%25A9.jpg%2F1280px-Pico_Basil%25C3%25A9.jpg&w=800&output=webp&q=80"}, {"id": "eritrea-asmara-modernist-city-centre", "name": "Asmara Modernist City Centre", "country": "Eritrea", "lat": 15.335833, "lng": 38.941111, "category": "Visit-worthy landmark", "photo": "https://wsrv.nl/?url=https%3A%2F%2Fupload.wikimedia.org%2Fwikipedia%2Fcommons%2Fthumb%2F8%2F87%2FAsmara_Montage.png%2F1280px-Asmara_Montage.png&w=800&output=webp&q=80"}, {"id": "eritrea-fiat-tagliero-building-asmara", "name": "Fiat Tagliero Building, Asmara", "country": "Eritrea", "lat": 15.328333, "lng": 38.925833, "category": "Civic / cultural landmark", "photo": "https://wsrv.nl/?url=https%3A%2F%2Fupload.wikimedia.org%2Fwikipedia%2Fcommons%2Fthumb%2F4%2F45%2FFiat_tagliero%252C_08.JPG%2F1280px-Fiat_tagliero%252C_08.JPG&w=800&output=webp&q=80"}, {"id": "eritrea-tank-graveyard-asmara", "name": "Tank Graveyard, Asmara", "country": "Eritrea", "lat": 15.01167, "lng": 38.995, "category": "Visit-worthy landmark", "photo": "https://wsrv.nl/?url=https%3A%2F%2Fupload.wikimedia.org%2Fwikipedia%2Fcommons%2Fb%2Fbf%2FIraqi_tank_graveyard_landscape.jpg&w=800&output=webp&q=80"}, {"id": "estonia-tallinn-old-town", "name": "Tallinn Old Town", "country": "Estonia", "lat": 59.437222, "lng": 24.745278, "category": "Visit-worthy landmark", "photo": "https://wsrv.nl/?url=https%3A%2F%2Fupload.wikimedia.org%2Fwikipedia%2Fcommons%2Fthumb%2Fe%2Fed%2FOld_Town_of_Tallinn%252C_Tallinn%252C_Estonia_-_panoramio_%252858%2529.jpg%2F1280px-Old_Town_of_Tallinn%252C_Tallinn%252C_Estonia_-_panoramio_%252858%2529.jpg&w=800&output=webp&q=80"}, {"id": "estonia-alexander-nevsky-cathedral-tallinn", "name": "Alexander Nevsky Cathedral, Tallinn", "country": "Estonia", "lat": 59.435833, "lng": 24.739361, "category": "Religious monument", "photo": "https://wsrv.nl/?url=https%3A%2F%2Fupload.wikimedia.org%2Fwikipedia%2Fcommons%2Fthumb%2Fb%2Fb7%2FCatedral_de_Alejandro_Nevsky%252C_Tallin%252C_Estonia%252C_2012-08-11%252C_DD_46.JPG%2F1280px-Catedral_de_Alejandro_Nevsky%252C_Tallin%252C_Estonia%252C_2012-08-11%252C_DD_46.JPG&w=800&output=webp&q=80"}, {"id": "estonia-kadriorg-palace", "name": "Kadriorg Palace", "country": "Estonia", "lat": 59.43851, "lng": 24.79084, "category": "Architectural landmark", "photo": "https://wsrv.nl/?url=https%3A%2F%2Fupload.wikimedia.org%2Fwikipedia%2Fcommons%2Fthumb%2F5%2F5e%2FTallinn_asv2022-04_img55_Kadriorg_Palace.jpg%2F1280px-Tallinn_asv2022-04_img55_Kadriorg_Palace.jpg&w=800&output=webp&q=80"}, {"id": "eswatini-mantenga-cultural-village", "name": "Mantenga Cultural Village", "country": "Eswatini", "lat": -26, "lng": 31.5, "category": "Visit-worthy landmark", "photo": "https://wsrv.nl/?url=https%3A%2F%2Fupload.wikimedia.org%2Fwikipedia%2Fcommons%2Fthumb%2Fa%2Faa%2FHhohho_in_Eswatini.svg%2F1280px-Hhohho_in_Eswatini.svg.png&w=800&output=webp&q=80"}, {"id": "eswatini-king-sobhuza-ii-memorial-park", "name": "King Sobhuza II Memorial Park", "country": "Eswatini", "lat": -26.48833, "lng": 31.495, "category": "Natural landmark", "photo": "https://wsrv.nl/?url=https%3A%2F%2Fupload.wikimedia.org%2Fwikipedia%2Fcommons%2F2%2F24%2FKing_Sobhuza_II%252C_1945_%2528cropped%2529.jpg&w=800&output=webp&q=80"}, {"id": "eswatini-sibebe-rock", "name": "Sibebe Rock", "country": "Eswatini", "lat": -26.48833, "lng": 31.495, "category": "Natural landmark", "photo": "https://wsrv.nl/?url=https%3A%2F%2Fupload.wikimedia.org%2Fwikipedia%2Fcommons%2Fthumb%2F0%2F0c%2FGranite_monolith.jpg%2F1280px-Granite_monolith.jpg&w=800&output=webp&q=80"}, {"id": "ethiopia-rock-hewn-churches-of-lalibela", "name": "Rock-Hewn Churches of Lalibela", "country": "Ethiopia", "lat": 12.0325, "lng": 39.043333, "category": "Natural landmark", "photo": "https://wsrv.nl/?url=https%3A%2F%2Fupload.wikimedia.org%2Fwikipedia%2Fcommons%2Fthumb%2Fa%2Faa%2FLalibela%252C_san_giorgio%252C_esterno_24.jpg%2F1280px-Lalibela%252C_san_giorgio%252C_esterno_24.jpg&w=800&output=webp&q=80"}, {"id": "ethiopia-aksum-obelisks", "name": "Aksum Obelisks", "country": "Ethiopia", "lat": 14.132222, "lng": 38.719722, "category": "Archaeological site", "photo": "https://wsrv.nl/?url=https%3A%2F%2Fupload.wikimedia.org%2Fwikipedia%2Fcommons%2Fthumb%2F6%2F69%2FRome_Stele.jpg%2F1280px-Rome_Stele.jpg&w=800&output=webp&q=80"}, {"id": "ethiopia-fasil-ghebbi-gondar", "name": "Fasil Ghebbi, Gondar", "country": "Ethiopia", "lat": 12.6075, "lng": 37.47, "category": "Visit-worthy landmark", "photo": "https://wsrv.nl/?url=https%3A%2F%2Fupload.wikimedia.org%2Fwikipedia%2Fcommons%2Fthumb%2F8%2F8f%2FFasilides_Palace_01.jpg%2F1280px-Fasilides_Palace_01.jpg&w=800&output=webp&q=80"}, {"id": "fiji-levuka-historical-port-town", "name": "Levuka Historical Port Town", "country": "Fiji", "lat": -17.68338, "lng": 178.83453, "category": "Visit-worthy landmark", "photo": "https://wsrv.nl/?url=https%3A%2F%2Fupload.wikimedia.org%2Fwikipedia%2Fcommons%2Fthumb%2F5%2F52%2FBeachStreetLevuka.jpg%2F1280px-BeachStreetLevuka.jpg&w=800&output=webp&q=80"}, {"id": "fiji-sri-siva-subramaniya-temple-nadi", "name": "Sri Siva Subramaniya Temple, Nadi", "country": "Fiji", "lat": -17.8, "lng": 177.416667, "category": "Religious monument", "photo": "https://wsrv.nl/?url=https%3A%2F%2Fupload.wikimedia.org%2Fwikipedia%2Fcommons%2F8%2F83%2FNadi.jpg&w=800&output=webp&q=80"}, {"id": "fiji-sacred-heart-cathedral-suva", "name": "Sacred Heart Cathedral, Suva", "country": "Fiji", "lat": -18.1416, "lng": 178.442, "category": "Religious monument", "photo": "https://wsrv.nl/?url=https%3A%2F%2Fupload.wikimedia.org%2Fwikipedia%2Fcommons%2Fthumb%2F8%2F83%2FSacred_Heart_Cathedral%252C_Suva_Fiji_July_2014.jpg%2F1280px-Sacred_Heart_Cathedral%252C_Suva_Fiji_July_2014.jpg&w=800&output=webp&q=80"}, {"id": "finland-helsinki-cathedral", "name": "Helsinki Cathedral", "country": "Finland", "lat": 60.170278, "lng": 24.952222, "category": "Religious monument", "photo": "https://wsrv.nl/?url=https%3A%2F%2Fupload.wikimedia.org%2Fwikipedia%2Fcommons%2Fthumb%2F7%2F7d%2FKirkko3.png%2F1280px-Kirkko3.png&w=800&output=webp&q=80"}, {"id": "finland-suomenlinna-fortress", "name": "Suomenlinna Fortress", "country": "Finland", "lat": 60.143611, "lng": 24.984444, "category": "Architectural landmark", "photo": "https://wsrv.nl/?url=https%3A%2F%2Fupload.wikimedia.org%2Fwikipedia%2Fcommons%2Fthumb%2Fa%2Faf%2FSuomenlinna_aerial.JPG%2F1280px-Suomenlinna_aerial.JPG&w=800&output=webp&q=80"}, {"id": "finland-old-rauma", "name": "Old Rauma", "country": "Finland", "lat": 61.133333, "lng": 21.5, "category": "Visit-worthy landmark", "photo": "https://wsrv.nl/?url=https%3A%2F%2Fupload.wikimedia.org%2Fwikipedia%2Fcommons%2Fthumb%2F0%2F0a%2FVanha_Rauma_vesitornista.jpg%2F1280px-Vanha_Rauma_vesitornista.jpg&w=800&output=webp&q=80"}, {"id": "gabon-lope-okanda-cultural-landscape", "name": "Lopé-Okanda Cultural Landscape", "country": "Gabon", "lat": -0.5, "lng": 11.5, "category": "Visit-worthy landmark", "photo": "https://wsrv.nl/?url=https%3A%2F%2Fupload.wikimedia.org%2Fwikipedia%2Fcommons%2F8%2F8d%2FLop%25C3%25A9_National_Park_river_crop.jpg&w=800&output=webp&q=80"}, {"id": "gabon-st-michael-s-cathedral-libreville", "name": "St. Michael's Cathedral, Libreville", "country": "Gabon", "lat": 43.655, "lng": -79.377, "category": "Religious monument", "photo": "https://wsrv.nl/?url=https%3A%2F%2Fupload.wikimedia.org%2Fwikipedia%2Fcommons%2F7%2F7e%2FPortrait_photograph_of_Archbishop_Marcel_Lefebvre.jpg&w=800&output=webp&q=80"}, {"id": "gabon-leon-mba-memorial-libreville", "name": "Léon Mba Memorial, Libreville", "country": "Gabon", "lat": -0.83333, "lng": 11.66833, "category": "Civic / cultural landmark", "photo": "https://wsrv.nl/?url=https%3A%2F%2Fupload.wikimedia.org%2Fwikipedia%2Fcommons%2Fd%2Fd5%2FL%25C3%25A9on_M%2527ba_1964.jpg&w=800&output=webp&q=80"}, {"id": "gambia-kunta-kinteh-island", "name": "Kunta Kinteh Island", "country": "Gambia", "lat": 13.317464, "lng": -16.361407, "category": "Natural landmark", "photo": "https://wsrv.nl/?url=https%3A%2F%2Fupload.wikimedia.org%2Fwikipedia%2Fcommons%2F0%2F00%2FRiver_gambia_galleryfull.jpg&w=800&output=webp&q=80"}, {"id": "gambia-stone-circles-of-senegambia", "name": "Stone Circles of Senegambia", "country": "Gambia", "lat": 13.691111, "lng": -15.5225, "category": "Visit-worthy landmark", "photo": "https://wsrv.nl/?url=https%3A%2F%2Fupload.wikimedia.org%2Fwikipedia%2Fcommons%2Fthumb%2F5%2F54%2FWassu_Stone_Circle.jpg%2F1280px-Wassu_Stone_Circle.jpg&w=800&output=webp&q=80"}, {"id": "gambia-arch-22-banjul", "name": "Arch 22, Banjul", "country": "Gambia", "lat": 13.454167, "lng": -16.575278, "category": "Visit-worthy landmark", "photo": "https://wsrv.nl/?url=https%3A%2F%2Fupload.wikimedia.org%2Fwikipedia%2Fcommons%2Fthumb%2Fb%2Fbb%2FGambia%252C_Banjul%252C_Arch_22.jpg%2F1280px-Gambia%252C_Banjul%252C_Arch_22.jpg&w=800&output=webp&q=80"}, {"id": "georgia-gergeti-trinity-church", "name": "Gergeti Trinity Church", "country": "Georgia", "lat": 42.6625, "lng": 44.620278, "category": "Religious monument", "photo": "https://wsrv.nl/?url=https%3A%2F%2Fupload.wikimedia.org%2Fwikipedia%2Fcommons%2Fthumb%2F4%2F4c%2FGergeti_Trinity_Church_09.23.jpg%2F1280px-Gergeti_Trinity_Church_09.23.jpg&w=800&output=webp&q=80"}, {"id": "georgia-svetitskhoveli-cathedral-mtskheta", "name": "Svetitskhoveli Cathedral, Mtskheta", "country": "Georgia", "lat": 41.8419, "lng": 44.7211, "category": "Religious monument", "photo": "https://wsrv.nl/?url=https%3A%2F%2Fupload.wikimedia.org%2Fwikipedia%2Fcommons%2Fthumb%2Fb%2Fbd%2FSvetitskhoveli_Cathedral_09.23_%25283%2529.jpg%2F1280px-Svetitskhoveli_Cathedral_09.23_%25283%2529.jpg&w=800&output=webp&q=80"}, {"id": "georgia-vardzia-cave-monastery", "name": "Vardzia Cave Monastery", "country": "Georgia", "lat": 41.380917, "lng": 43.283761, "category": "Natural landmark", "photo": "https://wsrv.nl/?url=https%3A%2F%2Fupload.wikimedia.org%2Fwikipedia%2Fcommons%2Fthumb%2Fd%2Fd2%2FVardzia_Cave_Monastery_05.jpg%2F1280px-Vardzia_Cave_Monastery_05.jpg&w=800&output=webp&q=80"}, {"id": "germany-brandenburg-gate-berlin", "name": "Brandenburg Gate, Berlin", "country": "Germany", "lat": 52.5163, "lng": 13.3777, "category": "Architectural landmark", "photo": "https://wsrv.nl/?url=https%3A%2F%2Fupload.wikimedia.org%2Fwikipedia%2Fcommons%2Fthumb%2Fa%2Fa6%2FBrandenburger_Tor_abends.jpg%2F1280px-Brandenburger_Tor_abends.jpg&w=800&output=webp&q=80"}, {"id": "germany-neuschwanstein-castle", "name": "Neuschwanstein Castle", "country": "Germany", "lat": 47.5575, "lng": 10.749444, "category": "Architectural landmark", "photo": "https://wsrv.nl/?url=https%3A%2F%2Fupload.wikimedia.org%2Fwikipedia%2Fcommons%2Fthumb%2Ff%2Ff8%2FSchloss_Neuschwanstein_2013.jpg%2F1280px-Schloss_Neuschwanstein_2013.jpg&w=800&output=webp&q=80"}, {"id": "germany-cologne-cathedral", "name": "Cologne Cathedral", "country": "Germany", "lat": 50.941389, "lng": 6.958333, "category": "Religious monument", "photo": "https://wsrv.nl/?url=https%3A%2F%2Fupload.wikimedia.org%2Fwikipedia%2Fcommons%2Fthumb%2F0%2F04%2FK%25C3%25B6lner_Dom_-_Westfassade_2022_ohne_Ger%25C3%25BCst-0968_b.jpg%2F1280px-K%25C3%25B6lner_Dom_-_Westfassade_2022_ohne_Ger%25C3%25BCst-0968_b.jpg&w=800&output=webp&q=80"}, {"id": "ghana-cape-coast-castle", "name": "Cape Coast Castle", "country": "Ghana", "lat": 5.103611, "lng": -1.241111, "category": "Architectural landmark", "photo": "https://wsrv.nl/?url=https%3A%2F%2Fupload.wikimedia.org%2Fwikipedia%2Fcommons%2Fthumb%2Fa%2Fa0%2FCape_Coast_Castle%252C_Cape_Coast%252C_Ghana.JPG%2F1280px-Cape_Coast_Castle%252C_Cape_Coast%252C_Ghana.JPG&w=800&output=webp&q=80"}, {"id": "ghana-kwame-nkrumah-memorial-park", "name": "Kwame Nkrumah Memorial Park", "country": "Ghana", "lat": 5.544444, "lng": -0.202778, "category": "Natural landmark", "photo": "https://wsrv.nl/?url=https%3A%2F%2Fupload.wikimedia.org%2Fwikipedia%2Fcommons%2F3%2F3b%2FFathia_Nkrumah_with_son_Gamal.jpg&w=800&output=webp&q=80"}, {"id": "ghana-larabanga-mosque", "name": "Larabanga Mosque", "country": "Ghana", "lat": 9.2203, "lng": -1.8599, "category": "Religious monument", "photo": "https://wsrv.nl/?url=https%3A%2F%2Fupload.wikimedia.org%2Fwikipedia%2Fcommons%2Fthumb%2F3%2F31%2FLarabanga_Mosque_Ghana.jpg%2F1280px-Larabanga_Mosque_Ghana.jpg&w=800&output=webp&q=80"}, {"id": "greece-acropolis-of-athens", "name": "Acropolis of Athens", "country": "Greece", "lat": 37.971667, "lng": 23.726111, "category": "Visit-worthy landmark", "photo": "https://wsrv.nl/?url=https%3A%2F%2Fupload.wikimedia.org%2Fwikipedia%2Fcommons%2Fthumb%2F2%2F2c%2F1029_Acropolis_of_Athens_in_Greece_at_night_Photo_by_Giles_Laurent.jpg%2F1280px-1029_Acropolis_of_Athens_in_Greece_at_night_Photo_by_Giles_Laurent.jpg&w=800&output=webp&q=80"}, {"id": "greece-santorini-blue-domes-oia", "name": "Santorini Blue Domes, Oia", "country": "Greece", "lat": 36.466667, "lng": 25.366667, "category": "Visit-worthy landmark", "photo": "https://wsrv.nl/?url=https%3A%2F%2Fupload.wikimedia.org%2Fwikipedia%2Fcommons%2Fthumb%2F3%2F37%2FOia_sunset_-_panoramio_%25282%2529.jpg%2F1280px-Oia_sunset_-_panoramio_%25282%2529.jpg&w=800&output=webp&q=80"}, {"id": "greece-meteora-monasteries", "name": "Meteora Monasteries", "country": "Greece", "lat": 39.714167, "lng": 21.631111, "category": "Visit-worthy landmark", "photo": "https://wsrv.nl/?url=https%3A%2F%2Fupload.wikimedia.org%2Fwikipedia%2Fcommons%2Fthumb%2F7%2F7c%2FMeteora%2527s_monastery_2.jpg%2F1280px-Meteora%2527s_monastery_2.jpg&w=800&output=webp&q=80"}, {"id": "grenada-fort-george-st-georges", "name": "Fort George, St. George’s", "country": "Grenada", "lat": 12.0525, "lng": -61.753056, "category": "Architectural landmark", "photo": "https://wsrv.nl/?url=https%3A%2F%2Fupload.wikimedia.org%2Fwikipedia%2Fcommons%2Fthumb%2Fb%2Fb0%2FSt_Georges_Grenada_Fort_-_panoramio.jpg%2F1280px-St_Georges_Grenada_Fort_-_panoramio.jpg&w=800&output=webp&q=80"}, {"id": "grenada-grenada-national-museum", "name": "Grenada National Museum", "country": "Grenada", "lat": 12.050576, "lng": -61.752655, "category": "Civic / cultural landmark", "photo": "https://wsrv.nl/?url=https%3A%2F%2Fupload.wikimedia.org%2Fwikipedia%2Fcommons%2Fthumb%2Ff%2Ff5%2FCH-53D_HMM-261_Grenada_Okt1983.jpeg%2F1280px-CH-53D_HMM-261_Grenada_Okt1983.jpeg&w=800&output=webp&q=80"}, {"id": "grenada-carib-s-leap-sauteurs", "name": "Carib's Leap, Sauteurs", "country": "Grenada", "lat": 12.218333, "lng": -61.639167, "category": "Visit-worthy landmark", "photo": "https://wsrv.nl/?url=https%3A%2F%2Fupload.wikimedia.org%2Fwikipedia%2Fcommons%2Fthumb%2F5%2F59%2F%2522Welcome_to_Sauteurs%2522_sign.jpg%2F1280px-%2522Welcome_to_Sauteurs%2522_sign.jpg&w=800&output=webp&q=80"}, {"id": "guatemala-tikal-national-park", "name": "Tikal National Park", "country": "Guatemala", "lat": 17.221944, "lng": -89.623611, "category": "Natural landmark", "photo": "https://wsrv.nl/?url=https%3A%2F%2Fupload.wikimedia.org%2Fwikipedia%2Fcommons%2Fthumb%2F7%2F75%2FTikal_3.jpg%2F1280px-Tikal_3.jpg&w=800&output=webp&q=80"}, {"id": "guatemala-antigua-guatemala", "name": "Antigua Guatemala", "country": "Guatemala", "lat": 15.5, "lng": -90.25, "category": "Visit-worthy landmark", "photo": "https://wsrv.nl/?url=https%3A%2F%2Fupload.wikimedia.org%2Fwikipedia%2Fcommons%2Fthumb%2Fe%2Fec%2FFlag_of_Guatemala.svg%2F1280px-Flag_of_Guatemala.svg.png&w=800&output=webp&q=80"}, {"id": "guatemala-santa-catalina-arch-antigua", "name": "Santa Catalina Arch, Antigua", "country": "Guatemala", "lat": 14.55958, "lng": -90.73423, "category": "Visit-worthy landmark", "photo": "https://wsrv.nl/?url=https%3A%2F%2Fupload.wikimedia.org%2Fwikipedia%2Fcommons%2Fthumb%2Fb%2Fb6%2FAntigua_-_Arco.jpg%2F1280px-Antigua_-_Arco.jpg&w=800&output=webp&q=80"}, {"id": "guinea-grand-mosque-of-conakry", "name": "Grand Mosque of Conakry", "country": "Guinea", "lat": 9.533175, "lng": -13.684129, "category": "Religious monument", "photo": "https://wsrv.nl/?url=https%3A%2F%2Fupload.wikimedia.org%2Fwikipedia%2Fen%2Fthumb%2F5%2F5b%2FMosqu%25C3%25A9e_Fay%25C3%25A7al_corrig%25C3%25A9e.jpg%2F1280px-Mosqu%25C3%25A9e_Fay%25C3%25A7al_corrig%25C3%25A9e.jpg&w=800&output=webp&q=80"}, {"id": "guinea-monument-du-22-novembre-conakry", "name": "Monument du 22 Novembre, Conakry", "country": "Guinea", "lat": 9.509167, "lng": -13.712222, "category": "Civic / cultural landmark", "photo": "https://wsrv.nl/?url=https%3A%2F%2Fupload.wikimedia.org%2Fwikipedia%2Fcommons%2Fthumb%2F5%2F51%2FVille_de_Conaky.jpg%2F1280px-Ville_de_Conaky.jpg&w=800&output=webp&q=80"}, {"id": "guinea-fouta-djallon-highlands", "name": "Fouta Djallon Highlands", "country": "Guinea", "lat": 11.3175, "lng": -12.289722, "category": "Visit-worthy landmark", "photo": "https://wsrv.nl/?url=https%3A%2F%2Fupload.wikimedia.org%2Fwikipedia%2Fcommons%2Fthumb%2F8%2F8c%2FGuinea_Highlands_map.png%2F1280px-Guinea_Highlands_map.png&w=800&output=webp&q=80"}, {"id": "guinea-bissau-fortaleza-de-sao-jose-da-amura-bissau", "name": "Fortaleza de São José da Amura, Bissau", "country": "Guinea-Bissau", "lat": 11.86, "lng": -15.583333, "category": "Architectural landmark", "photo": "https://wsrv.nl/?url=https%3A%2F%2Fupload.wikimedia.org%2Fwikipedia%2Fcommons%2Fthumb%2F4%2F44%2FBissau-Stroossenzeen--w.jpg%2F1280px-Bissau-Stroossenzeen--w.jpg&w=800&output=webp&q=80"}, {"id": "guinea-bissau-presidential-palace-ruins-bissau", "name": "Presidential Palace ruins, Bissau", "country": "Guinea-Bissau", "lat": 12, "lng": -15, "category": "Architectural landmark", "photo": "https://wsrv.nl/?url=https%3A%2F%2Fupload.wikimedia.org%2Fwikipedia%2Fcommons%2Fthumb%2F0%2F01%2FFlag_of_Guinea-Bissau.svg%2F1280px-Flag_of_Guinea-Bissau.svg.png&w=800&output=webp&q=80"}, {"id": "guinea-bissau-bissagos-islands", "name": "Bissagos Islands", "country": "Guinea-Bissau", "lat": 11.25, "lng": -16.083333, "category": "Natural landmark", "photo": "https://wsrv.nl/?url=https%3A%2F%2Fupload.wikimedia.org%2Fwikipedia%2Fcommons%2Fthumb%2F0%2F06%2FL%2527Archipel_des_Bijagos_vu_par_Sentinel_2.jpg%2F1280px-L%2527Archipel_des_Bijagos_vu_par_Sentinel_2.jpg&w=800&output=webp&q=80"}, {"id": "guyana-st-george-s-cathedral-georgetown", "name": "St. George's Cathedral, Georgetown", "country": "Guyana", "lat": 6.812778, "lng": -58.163611, "category": "Religious monument", "photo": "https://wsrv.nl/?url=https%3A%2F%2Fupload.wikimedia.org%2Fwikipedia%2Fcommons%2Fthumb%2F5%2F5c%2F20191121_Guyana_0048_Georgetown_sRGB_%252849295795336%2529.jpg%2F1280px-20191121_Guyana_0048_Georgetown_sRGB_%252849295795336%2529.jpg&w=800&output=webp&q=80"}, {"id": "guyana-demerara-harbour-bridge", "name": "Demerara Harbour Bridge", "country": "Guyana", "lat": 6.771916, "lng": -58.18744, "category": "Architectural landmark", "photo": "https://wsrv.nl/?url=https%3A%2F%2Fupload.wikimedia.org%2Fwikipedia%2Fcommons%2Fthumb%2Fe%2Fec%2F20191122_Guyana_0171_Georgetown_sRGB_%252849295935467%2529.jpg%2F1280px-20191122_Guyana_0171_Georgetown_sRGB_%252849295935467%2529.jpg&w=800&output=webp&q=80"}, {"id": "guyana-kaieteur-falls", "name": "Kaieteur Falls", "country": "Guyana", "lat": 5.175, "lng": -59.4805, "category": "Natural landmark", "photo": "https://wsrv.nl/?url=https%3A%2F%2Fupload.wikimedia.org%2Fwikipedia%2Fcommons%2Fthumb%2Fe%2Fe2%2FGuyanaKaieteurFalls2004.jpg%2F1280px-GuyanaKaieteurFalls2004.jpg&w=800&output=webp&q=80"}, {"id": "haiti-citadelle-laferriere", "name": "Citadelle Laferrière", "country": "Haiti", "lat": 19.573611, "lng": -72.243889, "category": "Architectural landmark", "photo": "https://wsrv.nl/?url=https%3A%2F%2Fupload.wikimedia.org%2Fwikipedia%2Fcommons%2Fthumb%2F7%2F76%2FCitadelle_Laferri%25C3%25A8re.jpg%2F1280px-Citadelle_Laferri%25C3%25A8re.jpg&w=800&output=webp&q=80"}, {"id": "haiti-sans-souci-palace", "name": "Sans-Souci Palace", "country": "Haiti", "lat": 19.604692, "lng": -72.218596, "category": "Architectural landmark", "photo": "https://wsrv.nl/?url=https%3A%2F%2Fupload.wikimedia.org%2Fwikipedia%2Fcommons%2Fthumb%2Fc%2Fc2%2FPalais_du_sans-soucis.JPG%2F1280px-Palais_du_sans-soucis.JPG&w=800&output=webp&q=80"}, {"id": "haiti-iron-market-port-au-prince", "name": "Iron Market, Port-au-Prince", "country": "Haiti", "lat": 18.536389, "lng": -72.346389, "category": "Visit-worthy landmark", "photo": "https://wsrv.nl/?url=https%3A%2F%2Fupload.wikimedia.org%2Fwikipedia%2Fcommons%2Fthumb%2Fe%2Fea%2FOuest_Department%252C_Haiti_-_panoramio_%25285%2529.jpg%2F1280px-Ouest_Department%252C_Haiti_-_panoramio_%25285%2529.jpg&w=800&output=webp&q=80"}, {"id": "honduras-copan-ruins", "name": "Copán Ruins", "country": "Honduras", "lat": 15.58505, "lng": -85.29261, "category": "Archaeological site", "photo": "https://wsrv.nl/?url=https%3A%2F%2Fupload.wikimedia.org%2Fwikipedia%2Fcommons%2F1%2F15%2FCopan_sculpture.jpg&w=800&output=webp&q=80"}, {"id": "honduras-fortress-of-san-fernando-de-omoa", "name": "Fortress of San Fernando de Omoa", "country": "Honduras", "lat": 15.773889, "lng": -88.036389, "category": "Architectural landmark", "photo": "https://wsrv.nl/?url=https%3A%2F%2Fupload.wikimedia.org%2Fwikipedia%2Fcommons%2Fthumb%2Fc%2Fcf%2FSan_Fernando_de_Omoa_Fortress_walls.jpg%2F1280px-San_Fernando_de_Omoa_Fortress_walls.jpg&w=800&output=webp&q=80"}, {"id": "honduras-rio-platano-biosphere-reserve", "name": "Rio Platano Biosphere Reserve", "country": "Honduras", "lat": 15.744444, "lng": -84.675, "category": "Visit-worthy landmark", "photo": "https://wsrv.nl/?url=https%3A%2F%2Fupload.wikimedia.org%2Fwikipedia%2Fcommons%2Fthumb%2Fd%2Fd1%2FCerro_Chachahuate.jpg%2F1280px-Cerro_Chachahuate.jpg&w=800&output=webp&q=80"}, {"id": "hungary-hungarian-parliament-building-budapest", "name": "Hungarian Parliament Building, Budapest", "country": "Hungary", "lat": 47.506944, "lng": 19.045556, "category": "Civic / cultural landmark", "photo": "https://wsrv.nl/?url=https%3A%2F%2Fupload.wikimedia.org%2Fwikipedia%2Fcommons%2Fthumb%2F9%2F99%2FHungarian_Parliament_Building_from_across_the_Danube%252C_2025-01-11.jpg%2F1280px-Hungarian_Parliament_Building_from_across_the_Danube%252C_2025-01-11.jpg&w=800&output=webp&q=80"}, {"id": "hungary-buda-castle", "name": "Buda Castle", "country": "Hungary", "lat": 47.496111, "lng": 19.039722, "category": "Architectural landmark", "photo": "https://wsrv.nl/?url=https%3A%2F%2Fupload.wikimedia.org%2Fwikipedia%2Fcommons%2Fthumb%2F5%2F5c%2FBudav%25C3%25A1ri_Palota%252C_ABCDEF_%25C3%25A9p%25C3%25BClet.jpg%2F1280px-Budav%25C3%25A1ri_Palota%252C_ABCDEF_%25C3%25A9p%25C3%25BClet.jpg&w=800&output=webp&q=80"}, {"id": "hungary-fishermans-bastion", "name": "Fisherman’s Bastion", "country": "Hungary", "lat": 47.5027, "lng": 19.0344, "category": "Visit-worthy landmark", "photo": "https://wsrv.nl/?url=https%3A%2F%2Fupload.wikimedia.org%2Fwikipedia%2Fcommons%2Fthumb%2F6%2F6a%2FHal%25C3%25A1szb%25C3%25A1stya_2017.jpg%2F1280px-Hal%25C3%25A1szb%25C3%25A1stya_2017.jpg&w=800&output=webp&q=80"}, {"id": "iceland-hallgrimskirkja-reykjavik", "name": "Hallgrímskirkja, Reykjavík", "country": "Iceland", "lat": 64.1417, "lng": -21.9266, "category": "Visit-worthy landmark", "photo": "https://wsrv.nl/?url=https%3A%2F%2Fupload.wikimedia.org%2Fwikipedia%2Fcommons%2Fthumb%2F8%2F8b%2FHallgrimskirkja_mai_2026.jpg%2F1280px-Hallgrimskirkja_mai_2026.jpg&w=800&output=webp&q=80"}, {"id": "iceland-thingvellir-national-park", "name": "Thingvellir National Park", "country": "Iceland", "lat": 64.253806, "lng": -21.03725, "category": "Natural landmark", "photo": "https://wsrv.nl/?url=https%3A%2F%2Fupload.wikimedia.org%2Fwikipedia%2Fcommons%2Fthumb%2F8%2F83%2F%25C3%259Eingvellir_from_the_information_centre.JPG%2F1280px-%25C3%259Eingvellir_from_the_information_centre.JPG&w=800&output=webp&q=80"}, {"id": "iceland-sun-voyager-reykjavik", "name": "Sun Voyager, Reykjavík", "country": "Iceland", "lat": 64.147597, "lng": -21.922311, "category": "Visit-worthy landmark", "photo": "https://wsrv.nl/?url=https%3A%2F%2Fupload.wikimedia.org%2Fwikipedia%2Fen%2Fthumb%2F7%2F71%2FSun_Voyager.jpeg%2F1280px-Sun_Voyager.jpeg&w=800&output=webp&q=80"}, {"id": "indonesia-borobudur-temple", "name": "Borobudur Temple", "country": "Indonesia", "lat": -7.608, "lng": 110.204, "category": "Religious monument", "photo": "https://wsrv.nl/?url=https%3A%2F%2Fupload.wikimedia.org%2Fwikipedia%2Fcommons%2Fthumb%2F2%2F25%2FPradaksina.jpg%2F1280px-Pradaksina.jpg&w=800&output=webp&q=80"}, {"id": "indonesia-prambanan-temple", "name": "Prambanan Temple", "country": "Indonesia", "lat": -7.752222, "lng": 110.491667, "category": "Religious monument", "photo": "https://wsrv.nl/?url=https%3A%2F%2Fupload.wikimedia.org%2Fwikipedia%2Fcommons%2Fthumb%2F0%2F0b%2FPrambanan_Temple_Yogyakarta_Indonesia.jpg%2F1280px-Prambanan_Temple_Yogyakarta_Indonesia.jpg&w=800&output=webp&q=80"}, {"id": "indonesia-tanah-lot-temple-bali", "name": "Tanah Lot Temple, Bali", "country": "Indonesia", "lat": -8.62107, "lng": 115.08716, "category": "Religious monument", "photo": "https://wsrv.nl/?url=https%3A%2F%2Fupload.wikimedia.org%2Fwikipedia%2Fcommons%2Fthumb%2F8%2F8d%2FTanahLot_2014.JPG%2F1280px-TanahLot_2014.JPG&w=800&output=webp&q=80"}, {"id": "iran-persepolis", "name": "Persepolis", "country": "Iran", "lat": 29.935, "lng": 52.89, "category": "Visit-worthy landmark", "photo": "https://wsrv.nl/?url=https%3A%2F%2Fupload.wikimedia.org%2Fwikipedia%2Fcommons%2Fthumb%2F7%2F7e%2FPersepolis_east_side_at_spring.jpg%2F500px-Persepolis_east_side_at_spring.jpg&w=800&output=webp&q=80"}, {"id": "iran-nasir-al-mulk-mosque-shiraz", "name": "Nasir al-Mulk Mosque, Shiraz", "country": "Iran", "lat": 29.608611, "lng": 52.548333, "category": "Religious monument", "photo": "https://wsrv.nl/?url=https%3A%2F%2Fupload.wikimedia.org%2Fwikipedia%2Fcommons%2Fthumb%2F4%2F4b%2FNasir_ol_Molk_Mosque_%252831233739431%2529.jpg%2F1280px-Nasir_ol_Molk_Mosque_%252831233739431%2529.jpg&w=800&output=webp&q=80"}, {"id": "iran-naqsh-e-jahan-square-isfahan", "name": "Naqsh-e Jahan Square, Isfahan", "country": "Iran", "lat": 32.65745, "lng": 51.677778, "category": "Civic / cultural landmark", "photo": "https://wsrv.nl/?url=https%3A%2F%2Fupload.wikimedia.org%2Fwikipedia%2Fcommons%2Fthumb%2Fe%2Fee%2FNaqsh-i_Jahan_Square%252C_Jan._2018.jpg%2F1280px-Naqsh-i_Jahan_Square%252C_Jan._2018.jpg&w=800&output=webp&q=80"}, {"id": "iraq-erbil-citadel", "name": "Erbil Citadel", "country": "Iraq", "lat": 36.19111, "lng": 44.00917, "category": "Architectural landmark", "photo": "https://wsrv.nl/?url=https%3A%2F%2Fupload.wikimedia.org%2Fwikipedia%2Fcommons%2Fthumb%2F3%2F34%2FHawler_Castle.jpg%2F1280px-Hawler_Castle.jpg&w=800&output=webp&q=80"}, {"id": "iraq-ziggurat-of-ur", "name": "Ziggurat of Ur", "country": "Iraq", "lat": 30.962778, "lng": 46.103056, "category": "Visit-worthy landmark", "photo": "https://wsrv.nl/?url=https%3A%2F%2Fupload.wikimedia.org%2Fwikipedia%2Fcommons%2Fthumb%2F6%2F6b%2FZiggarat_of_Ur_001.jpg%2F1280px-Ziggarat_of_Ur_001.jpg&w=800&output=webp&q=80"}, {"id": "iraq-al-mustansiriya-school-baghdad", "name": "Al-Mustansiriya School, Baghdad", "country": "Iraq", "lat": 33.338611, "lng": 44.389722, "category": "Visit-worthy landmark", "photo": "https://wsrv.nl/?url=https%3A%2F%2Fupload.wikimedia.org%2Fwikipedia%2Fcommons%2Fthumb%2F6%2F67%2FAl-Mustansriah_School_-_Main_door.jpg%2F1280px-Al-Mustansriah_School_-_Main_door.jpg&w=800&output=webp&q=80"}, {"id": "ireland-newgrange-bru-na-boinne", "name": "Newgrange / Brú na Bóinne", "country": "Ireland", "lat": 53.69284, "lng": -6.44932, "category": "Visit-worthy landmark", "photo": "https://wsrv.nl/?url=https%3A%2F%2Fupload.wikimedia.org%2Fwikipedia%2Fcommons%2Fthumb%2F8%2F88%2FNewgrange_-_538040135.jpg%2F1280px-Newgrange_-_538040135.jpg&w=800&output=webp&q=80"}, {"id": "ireland-rock-of-cashel", "name": "Rock of Cashel", "country": "Ireland", "lat": 52.52, "lng": -7.89, "category": "Natural landmark", "photo": "https://wsrv.nl/?url=https%3A%2F%2Fupload.wikimedia.org%2Fwikipedia%2Fcommons%2F1%2F13%2FRock_of_Cashel_%252849163525453%2529.jpg&w=800&output=webp&q=80"}, {"id": "ireland-dublin-castle", "name": "Dublin Castle", "country": "Ireland", "lat": 53.3429, "lng": -6.2675, "category": "Architectural landmark", "photo": "https://wsrv.nl/?url=https%3A%2F%2Fupload.wikimedia.org%2Fwikipedia%2Fcommons%2Fthumb%2Fa%2Fa3%2FThe_Dubhlinn_Gardens_Dublin_Castle_01.JPG%2F1280px-The_Dubhlinn_Gardens_Dublin_Castle_01.JPG&w=800&output=webp&q=80"}, {"id": "israel-masada", "name": "Masada", "country": "Israel", "lat": 31.315556, "lng": 35.353889, "category": "Visit-worthy landmark", "photo": "https://wsrv.nl/?url=https%3A%2F%2Fupload.wikimedia.org%2Fwikipedia%2Fcommons%2Fthumb%2F1%2F14%2FIsrael-2013-Aerial_21-Masada.jpg%2F1280px-Israel-2013-Aerial_21-Masada.jpg&w=800&output=webp&q=80"}, {"id": "israel-old-city-of-acre", "name": "Old City of Acre", "country": "Israel", "lat": 32.921389, "lng": 35.068889, "category": "Visit-worthy landmark", "photo": "https://wsrv.nl/?url=https%3A%2F%2Fupload.wikimedia.org%2Fwikipedia%2Fcommons%2Fthumb%2Ff%2Ff3%2FAerial_view_of_Acre_1.jpg%2F1280px-Aerial_view_of_Acre_1.jpg&w=800&output=webp&q=80"}, {"id": "israel-dome-of-the-rock-temple-mount-jerusalem", "name": "Dome of the Rock / Temple Mount, Jerusalem", "country": "Israel", "lat": 31.778, "lng": 35.2354, "category": "Natural landmark", "photo": "https://wsrv.nl/?url=https%3A%2F%2Fupload.wikimedia.org%2Fwikipedia%2Fcommons%2Fthumb%2F8%2F8b%2FJerusalem-2013%25282%2529-Temple_Mount-Dome_of_the_Rock_%2528SE_exposure%2529.jpg%2F1280px-Jerusalem-2013%25282%2529-Temple_Mount-Dome_of_the_Rock_%2528SE_exposure%2529.jpg&w=800&output=webp&q=80"}, {"id": "ivory-coast-basilica-of-our-lady-of-peace-yamoussoukro", "name": "Basilica of Our Lady of Peace, Yamoussoukro", "country": "Ivory Coast", "lat": 6.811111, "lng": -5.296944, "category": "Religious monument", "photo": "https://wsrv.nl/?url=https%3A%2F%2Fupload.wikimedia.org%2Fwikipedia%2Fcommons%2Fthumb%2Fe%2Fe2%2FYamoussoukro_panorama.jpg%2F1280px-Yamoussoukro_panorama.jpg&w=800&output=webp&q=80"}, {"id": "ivory-coast-grand-bassam-historic-town", "name": "Grand-Bassam Historic Town", "country": "Ivory Coast", "lat": 5.2, "lng": -3.733333, "category": "Visit-worthy landmark", "photo": "https://wsrv.nl/?url=https%3A%2F%2Fupload.wikimedia.org%2Fwikipedia%2Fcommons%2F7%2F7d%2F800px-Grand-Bassam.jpg&w=800&output=webp&q=80"}, {"id": "ivory-coast-st-pauls-cathedral-abidjan", "name": "St. Paul’s Cathedral, Abidjan", "country": "Ivory Coast", "lat": 5.332778, "lng": -4.02, "category": "Religious monument", "photo": "https://wsrv.nl/?url=https%3A%2F%2Fupload.wikimedia.org%2Fwikipedia%2Fcommons%2Fthumb%2Fe%2Fef%2FVisite_du_mus%25C3%25A9e_de_civilisation_de_C%25C3%25B4te_d%2527Ivoire_08.jpg%2F1280px-Visite_du_mus%25C3%25A9e_de_civilisation_de_C%25C3%25B4te_d%2527Ivoire_08.jpg&w=800&output=webp&q=80"}, {"id": "jamaica-devon-house-kingston", "name": "Devon House, Kingston", "country": "Jamaica", "lat": 18.01473, "lng": -76.79002, "category": "Visit-worthy landmark", "photo": "https://wsrv.nl/?url=https%3A%2F%2Fupload.wikimedia.org%2Fwikipedia%2Fcommons%2F6%2F61%2FMandeville-courthouse.jpg&w=800&output=webp&q=80"}, {"id": "jamaica-bob-marley-museum-kingston", "name": "Bob Marley Museum, Kingston", "country": "Jamaica", "lat": 18.019615, "lng": -76.779832, "category": "Civic / cultural landmark", "photo": "https://wsrv.nl/?url=https%3A%2F%2Fupload.wikimedia.org%2Fwikipedia%2Fcommons%2F8%2F81%2F56hoperd.JPG&w=800&output=webp&q=80"}, {"id": "jamaica-port-royal-historic-district", "name": "Port Royal Historic District", "country": "Jamaica", "lat": 38.050833, "lng": -77.35, "category": "Visit-worthy landmark", "photo": "https://wsrv.nl/?url=https%3A%2F%2Fupload.wikimedia.org%2Fwikipedia%2Fcommons%2Fthumb%2F6%2F6f%2FSt._Peter%2527s_Episcopal_Church_Port_Royal_HD_Oct_12.JPG%2F3840px-St._Peter%2527s_Episcopal_Church_Port_Royal_HD_Oct_12.JPG&w=800&output=webp&q=80"}, {"id": "jordan-petra", "name": "Petra", "country": "Jordan", "lat": 30.33056, "lng": 35.44333, "category": "Visit-worthy landmark", "photo": "https://wsrv.nl/?url=https%3A%2F%2Fupload.wikimedia.org%2Fwikipedia%2Fcommons%2Fthumb%2Fe%2Fe8%2FAl_Deir_Petra.JPG%2F1280px-Al_Deir_Petra.JPG&w=800&output=webp&q=80"}, {"id": "jordan-wadi-rum", "name": "Wadi Rum", "country": "Jordan", "lat": 29.593056, "lng": 35.42, "category": "Visit-worthy landmark", "photo": "https://wsrv.nl/?url=https%3A%2F%2Fupload.wikimedia.org%2Fwikipedia%2Fcommons%2Fthumb%2F5%2F56%2FMountain_in_Wadi_Rum%252C_Jordan.jpg%2F1280px-Mountain_in_Wadi_Rum%252C_Jordan.jpg&w=800&output=webp&q=80"}, {"id": "jordan-jerash-roman-ruins", "name": "Jerash Roman Ruins", "country": "Jordan", "lat": 32.280556, "lng": 35.897222, "category": "Archaeological site", "photo": "https://wsrv.nl/?url=https%3A%2F%2Fupload.wikimedia.org%2Fwikipedia%2Fcommons%2Fthumb%2F5%2F51%2FOval_Plaza_%2528Forum_Romanum%252C_Gerasa_-_Jerash%252C_Jordan%2529_-_%25D8%25B3%25D8%25A7%25D8%25AD%25D8%25A9_%25D8%25A7%25D9%2584%25D9%2586%25D8%25AF%25D9%2588%25D8%25A9%252C_%25D8%25AC%25D8%25B1%25D8%25B4.jpg%2F1280px-Oval_Plaza_%2528Forum_Romanum%252C_Gerasa_-_Jerash%252C_Jordan%2529_-_%25D8%25B3%25D8%25A7%25D8%25AD%25D8%25A9_%25D8%25A7%25D9%2584%25D9%2586%25D8%25AF%25D9%2588%25D8%25A9%252C_%25D8%25AC%25D8%25B1%25D8%25B4.jpg&w=800&output=webp&q=80"}, {"id": "kazakhstan-mausoleum-of-khoja-ahmed-yasawi", "name": "Mausoleum of Khoja Ahmed Yasawi", "country": "Kazakhstan", "lat": 43.297778, "lng": 68.270833, "category": "Visit-worthy landmark", "photo": "https://wsrv.nl/?url=https%3A%2F%2Fupload.wikimedia.org%2Fwikipedia%2Fcommons%2Fthumb%2Fc%2Fc2%2F%25D0%259C%25D0%25B0%25D1%2583%25D0%25B7%25D0%25BE%25D0%25BB%25D0%25B5%25D1%2598_%25D0%25A5%25D0%25BE%25D0%25B4%25D0%25B6%25D0%25B5_%25D0%2590%25D1%2585%25D0%25BC%25D0%25B5%25D0%25B4%25D0%25B0_%25D0%2588%25D0%25B0%25D1%2581%25D0%25B0%25D0%25B2%25D0%25B8%25D1%2598%25D0%25B0_%2528%25D0%25B3%25D1%2580%25D0%25B0%25D0%25B4_%25D0%25A2%25D1%2583%25D1%2580%25D0%25BA%25D0%25B5%25D1%2581%25D1%2582%25D0%25B0%25D0%25BD%252C_%25D0%259A%25D0%25B0%25D0%25B7%25D0%25B0%25D1%2585%25D1%2581%25D1%2582%25D0%25B0%25D0%25BD%2529.jpg%2F1280px-%25D0%259C%25D0%25B0%25D1%2583%25D0%25B7%25D0%25BE%25D0%25BB%25D0%25B5%25D1%2598_%25D0%25A5%25D0%25BE%25D0%25B4%25D0%25B6%25D0%25B5_%25D0%2590%25D1%2585%25D0%25BC%25D0%25B5%25D0%25B4%25D0%25B0_%25D0%2588%25D0%25B0%25D1%2581%25D0%25B0%25D0%25B2%25D0%25B8%25D1%2598%25D0%25B0_%2528%25D0%25B3%25D1%2580%25D0%25B0%25D0%25B4_%25D0%25A2%25D1%2583%25D1%2580%25D0%25BA%25D0%25B5%25D1%2581%25D1%2582%25D0%25B0%25D0%25BD%252C_%25D0%259A%25D0%25B0%25D0%25B7%25D0%25B0%25D1%2585%25D1%2581%25D1%2582%25D0%25B0%25D0%25BD%2529.jpg&w=800&output=webp&q=80"}, {"id": "kazakhstan-bayterek-tower-astana", "name": "Bayterek Tower, Astana", "country": "Kazakhstan", "lat": 51.128333, "lng": 71.430556, "category": "Natural landmark", "photo": "https://wsrv.nl/?url=https%3A%2F%2Fupload.wikimedia.org%2Fwikipedia%2Fen%2Fthumb%2F6%2F66%2FCentral_Downtown_Astana_2.jpg%2F1280px-Central_Downtown_Astana_2.jpg&w=800&output=webp&q=80"}, {"id": "kazakhstan-tamgaly-petroglyphs", "name": "Tamgaly Petroglyphs", "country": "Kazakhstan", "lat": 43.803333, "lng": 75.535, "category": "Archaeological site", "photo": "https://wsrv.nl/?url=https%3A%2F%2Fupload.wikimedia.org%2Fwikipedia%2Fcommons%2Fc%2Fc1%2FTanbaly.jpg&w=800&output=webp&q=80"}, {"id": "kenya-fort-jesus-mombasa", "name": "Fort Jesus, Mombasa", "country": "Kenya", "lat": -4.062778, "lng": 39.679722, "category": "Architectural landmark", "photo": "https://wsrv.nl/?url=https%3A%2F%2Fupload.wikimedia.org%2Fwikipedia%2Fcommons%2F4%2F41%2FFort_Jesus_at_the_Mombasa_Island.jpg&w=800&output=webp&q=80"}, {"id": "kenya-lamu-old-town", "name": "Lamu Old Town", "country": "Kenya", "lat": -2.269444, "lng": 40.902222, "category": "Visit-worthy landmark", "photo": "https://wsrv.nl/?url=https%3A%2F%2Fupload.wikimedia.org%2Fwikipedia%2Fcommons%2F2%2F29%2FLamu_Old_Town.jpg&w=800&output=webp&q=80"}, {"id": "kenya-giraffe-centre-nairobi-landmark", "name": "Giraffe Centre / Nairobi landmark", "country": "Kenya", "lat": -1.366111, "lng": 36.738056, "category": "Visit-worthy landmark", "photo": "https://wsrv.nl/?url=https%3A%2F%2Fupload.wikimedia.org%2Fwikipedia%2Fcommons%2F0%2F07%2FKutchprant.jpg&w=800&output=webp&q=80"}, {"id": "kiribati-phoenix-islands-protected-area", "name": "Phoenix Islands Protected Area", "country": "Kiribati", "lat": -3.649722, "lng": -172.8575, "category": "Natural landmark", "photo": "https://wsrv.nl/?url=https%3A%2F%2Fupload.wikimedia.org%2Fwikipedia%2Fcommons%2Fthumb%2F5%2F52%2FRotjan_-_Enderbury_Day_1_-_2nd_half_%252862%2529.JPG%2F1280px-Rotjan_-_Enderbury_Day_1_-_2nd_half_%252862%2529.JPG&w=800&output=webp&q=80"}, {"id": "kiribati-parliament-house-south-tarawa", "name": "Parliament House, South Tarawa", "country": "Kiribati", "lat": 1.433333, "lng": 173, "category": "Civic / cultural landmark", "photo": "https://wsrv.nl/?url=https%3A%2F%2Fupload.wikimedia.org%2Fwikipedia%2Fcommons%2Fthumb%2Fb%2Fb5%2FSouth_Tarawa_from_the_air.jpg%2F1280px-South_Tarawa_from_the_air.jpg&w=800&output=webp&q=80"}, {"id": "kiribati-japanese-wwii-guns-betio", "name": "Japanese WWII Guns, Betio", "country": "Kiribati", "lat": 1.426944, "lng": 172.975556, "category": "Visit-worthy landmark", "photo": "https://wsrv.nl/?url=https%3A%2F%2Fupload.wikimedia.org%2Fwikipedia%2Fcommons%2Fthumb%2Fe%2Fe7%2FMarines_Advance_on_Japanese_Pill_Boxes%252C_Tarawa%252C_November_1943_%252810962107133%2529.jpg%2F1280px-Marines_Advance_on_Japanese_Pill_Boxes%252C_Tarawa%252C_November_1943_%252810962107133%2529.jpg&w=800&output=webp&q=80"}, {"id": "kuwait-kuwait-towers", "name": "Kuwait Towers", "country": "Kuwait", "lat": 29.5, "lng": 47.75, "category": "Architectural landmark", "photo": "https://wsrv.nl/?url=https%3A%2F%2Fupload.wikimedia.org%2Fwikipedia%2Fcommons%2Fthumb%2Fa%2Faa%2FFlag_of_Kuwait.svg%2F1280px-Flag_of_Kuwait.svg.png&w=800&output=webp&q=80"}, {"id": "kuwait-grand-mosque-of-kuwait", "name": "Grand Mosque of Kuwait", "country": "Kuwait", "lat": 29.378889, "lng": 47.974722, "category": "Religious monument", "photo": "https://wsrv.nl/?url=https%3A%2F%2Fupload.wikimedia.org%2Fwikipedia%2Fcommons%2Fthumb%2F6%2F6e%2FKuwait_City_Grand_Mosque_Exterior_South_Facade_5.jpg%2F1280px-Kuwait_City_Grand_Mosque_Exterior_South_Facade_5.jpg&w=800&output=webp&q=80"}, {"id": "kuwait-seif-palace", "name": "Seif Palace", "country": "Kuwait", "lat": 29.51167, "lng": 45.745, "category": "Architectural landmark", "photo": "https://wsrv.nl/?url=https%3A%2F%2Fupload.wikimedia.org%2Fwikipedia%2Fcommons%2Fb%2Fb7%2FSeifpalace.jpg&w=800&output=webp&q=80"}, {"id": "kyrgyzstan-sulaiman-too-sacred-mountain", "name": "Sulaiman-Too Sacred Mountain", "country": "Kyrgyzstan", "lat": 40.531111, "lng": 72.782778, "category": "Natural landmark", "photo": "https://wsrv.nl/?url=https%3A%2F%2Fupload.wikimedia.org%2Fwikipedia%2Fcommons%2Fthumb%2F6%2F6b%2FOsh_03-2016_img06_Sulayman_Mountain.jpg%2F1280px-Osh_03-2016_img06_Sulayman_Mountain.jpg&w=800&output=webp&q=80"}, {"id": "kyrgyzstan-burana-tower", "name": "Burana Tower", "country": "Kyrgyzstan", "lat": 42.746944, "lng": 75.248611, "category": "Architectural landmark", "photo": "https://wsrv.nl/?url=https%3A%2F%2Fupload.wikimedia.org%2Fwikipedia%2Fcommons%2Fthumb%2F1%2F12%2FBurana_Tower%252C_Kyrgyzstan.jpg%2F1280px-Burana_Tower%252C_Kyrgyzstan.jpg&w=800&output=webp&q=80"}, {"id": "kyrgyzstan-ala-too-square-bishkek", "name": "Ala-Too Square, Bishkek", "country": "Kyrgyzstan", "lat": 42.876389, "lng": 74.603889, "category": "Civic / cultural landmark", "photo": "https://wsrv.nl/?url=https%3A%2F%2Fupload.wikimedia.org%2Fwikipedia%2Fcommons%2Fthumb%2F5%2F53%2FBishkek_P9170507_014_%252840103613941%2529.jpg%2F1280px-Bishkek_P9170507_014_%252840103613941%2529.jpg&w=800&output=webp&q=80"}, {"id": "laos-pha-that-luang-vientiane", "name": "Pha That Luang, Vientiane", "country": "Laos", "lat": 17.976167, "lng": 102.63425, "category": "Visit-worthy landmark", "photo": "https://wsrv.nl/?url=https%3A%2F%2Fupload.wikimedia.org%2Fwikipedia%2Fcommons%2Fthumb%2F4%2F49%2FPha_That_Luang%252C_July_2023.jpg%2F1280px-Pha_That_Luang%252C_July_2023.jpg&w=800&output=webp&q=80"}, {"id": "laos-town-of-luang-prabang", "name": "Town of Luang Prabang", "country": "Laos", "lat": 19.89, "lng": 102.134722, "category": "Visit-worthy landmark", "photo": "https://wsrv.nl/?url=https%3A%2F%2Fupload.wikimedia.org%2Fwikipedia%2Fcommons%2Fthumb%2Ff%2Ff7%2FPhou_si_Luang_Prabang_Laos_%25E3%2583%2597%25E3%2583%25BC%25E3%2582%25B7%25E3%2583%25BC%25E3%2581%25AE%25E4%25B8%2598_%25E3%2583%25A9%25E3%2582%25AA%25E3%2582%25B9%25E3%2583%25BB%25E3%2583%25AB%25E3%2582%25A2%25E3%2583%25B3%25E3%2583%2597%25E3%2583%25A9%25E3%2583%2590%25E3%2583%25BC%25E3%2583%25B3_DSCF6777.jpg%2F1280px-Phou_si_Luang_Prabang_Laos_%25E3%2583%2597%25E3%2583%25BC%25E3%2582%25B7%25E3%2583%25BC%25E3%2581%25AE%25E4%25B8%2598_%25E3%2583%25A9%25E3%2582%25AA%25E3%2582%25B9%25E3%2583%25BB%25E3%2583%25AB%25E3%2582%25A2%25E3%2583%25B3%25E3%2583%2597%25E3%2583%25A9%25E3%2583%2590%25E3%2583%25BC%25E3%2583%25B3_DSCF6777.jpg&w=800&output=webp&q=80"}, {"id": "laos-vat-phou", "name": "Vat Phou", "country": "Laos", "lat": 14.848333, "lng": 105.822222, "category": "Visit-worthy landmark", "photo": "https://wsrv.nl/?url=https%3A%2F%2Fupload.wikimedia.org%2Fwikipedia%2Fcommons%2Fthumb%2F1%2F1e%2FChampasak%252C_Laos%252C_Wat_Poo_03.jpg%2F1280px-Champasak%252C_Laos%252C_Wat_Poo_03.jpg&w=800&output=webp&q=80"}, {"id": "latvia-riga-old-town", "name": "Riga Old Town", "country": "Latvia", "lat": 57.67898, "lng": 25.16148, "category": "Visit-worthy landmark", "photo": "https://wsrv.nl/?url=https%3A%2F%2Fupload.wikimedia.org%2Fwikipedia%2Fcommons%2Fthumb%2F9%2F99%2FGreater_Coat_of_Arms_of_Riga_-_for_display.svg%2F1280px-Greater_Coat_of_Arms_of_Riga_-_for_display.svg.png&w=800&output=webp&q=80"}, {"id": "latvia-freedom-monument-riga", "name": "Freedom Monument, Riga", "country": "Latvia", "lat": 56.951389, "lng": 24.113056, "category": "Civic / cultural landmark", "photo": "https://wsrv.nl/?url=https%3A%2F%2Fupload.wikimedia.org%2Fwikipedia%2Fcommons%2Fthumb%2F7%2F76%2F0873_LVA_Riga_freedom_monument_SE.jpg%2F1280px-0873_LVA_Riga_freedom_monument_SE.jpg&w=800&output=webp&q=80"},