[{"id": "afghanistan-minaret-of-jam", "name": "Minaret of Jam", "country": "Afghanistan", "lat": 34.0895, "lng": 65.79044, "category": "Visit-worthy landmark", "photo": "https://upload.wikimedia.org/wikipedia/commons/2/23/Jam_afghan_architecture_harirud_brick.jpg"}, {"id": "afghanistan-bamiyan-valley-buddhas-of-bamiyan", "name": "Bamiyan Valley / Buddhas of Bamiyan", "country": "Afghanistan", "lat": 34.0895, "lng": 65.79044, "category": "Natural landmark", "photo": "https://upload.wikimedia.org/wikipedia/commons/4/46/Buddha_of_Bamiyan.jpg"}, {"id": "afghanistan-babur-garden-kabul", "name": "Babur Garden, Kabul", "country": "Afghanistan", "lat": 34.0895, "lng": 65.79044, "category": "Visit-worthy landmark", "photo": "https://upload.wikimedia.org/wikipedia/commons/a/a9/Garden_of_Babur_By_Dani.jpg"}, {"id": "albania-butrint", "name": "Butrint", "country": "Albania", "lat": 39.75111, "lng": 20.02611, "category": "Visit-worthy landmark", "photo": "https://upload.wikimedia.org/wikipedia/commons/thumb/9/9b/Amphitheatre_of_Butrint_2009.jpg/1280px-Amphitheatre_of_Butrint_2009.jpg"}, {"id": "albania-berat-castle-and-historic-centre", "name": "Berat Castle and Historic Centre", "country": "Albania", "lat": 39.987, "lng": 20.04257, "category": "Architectural landmark", "photo": "https://upload.wikimedia.org/wikipedia/commons/thumb/5/5e/Berat_-_Festung_2a_Haupttor.jpg/1280px-Berat_-_Festung_2a_Haupttor.jpg"}, {"id": "albania-gjirokastra-castle", "name": "Gjirokastra Castle", "country": "Albania", "lat": 39.987, "lng": 20.04257, "category": "Architectural landmark", "photo": "https://upload.wikimedia.org/wikipedia/commons/thumb/1/16/Gjirokaster_2016-2017.jpg/1280px-Gjirokaster_2016-2017.jpg"}, {"id": "algeria-timgad-roman-ruins", "name": "Timgad Roman Ruins", "country": "Algeria", "lat": 35.45, "lng": 6.63333, "category": "Archaeological site", "photo": "https://upload.wikimedia.org/wikipedia/commons/thumb/c/ce/Timgad_%2815685889550%29.jpg/1280px-Timgad_%2815685889550%29.jpg"}, {"id": "algeria-tipasa-archaeological-park", "name": "Tipasa Archaeological Park", "country": "Algeria", "lat": 36.55, "lng": 2.38333, "category": "Natural landmark", "photo": "https://upload.wikimedia.org/wikipedia/commons/thumb/7/77/Flag_of_Algeria.svg/1280px-Flag_of_Algeria.svg.png"}, {"id": "algeria-kasbah-of-algiers", "name": "Kasbah of Algiers", "country": "Algeria", "lat": 36.01187, "lng": 4.55382, "category": "Visit-worthy landmark", "photo": "https://upload.wikimedia.org/wikipedia/commons/thumb/d/d4/AlgerCasbah.jpg/1280px-AlgerCasbah.jpg"}, {"id": "andorra-casa-de-la-vall", "name": "Casa de la Vall", "country": "Andorra", "lat": 42.49629, "lng": 1.56799, "category": "Visit-worthy landmark", "photo": "https://upload.wikimedia.org/wikipedia/commons/thumb/e/e6/Casa_de_la_Vall_2015-10.JPG/1280px-Casa_de_la_Vall_2015-10.JPG"}, {"id": "andorra-sant-joan-de-caselles-church", "name": "Sant Joan de Caselles Church", "country": "Andorra", "lat": 42.49629, "lng": 1.56799, "category": "Religious monument", "photo": "https://upload.wikimedia.org/wikipedia/commons/thumb/3/36/Esgl%C3%A9sia_de_Sant_Joan_de_Caselles_-_10.jpg/1280px-Esgl%C3%A9sia_de_Sant_Joan_de_Caselles_-_10.jpg"}, {"id": "andorra-madriu-perafita-claror-valley", "name": "Madriu-Perafita-Claror Valley", "country": "Andorra", "lat": 42.49472, "lng": 1.59556, "category": "Natural landmark", "photo": "https://upload.wikimedia.org/wikipedia/commons/c/c9/Refuge_perafita_andorra.jpg"}, {"id": "angola-fortress-of-sao-miguel-luanda", "name": "Fortress of São Miguel, Luanda", "country": "Angola", "lat": -12.48833, "lng": 18.495, "category": "Architectural landmark", "photo": "https://upload.wikimedia.org/wikipedia/commons/thumb/c/c8/Luanda-SMiguelFort2.jpg/1280px-Luanda-SMiguelFort2.jpg"}, {"id": "angola-national-museum-of-slavery-morro-da-cruz", "name": "National Museum of Slavery, Morro da Cruz", "country": "Angola", "lat": -12.48833, "lng": 18.495, "category": "Civic / cultural landmark", "photo": "https://upload.wikimedia.org/wikipedia/commons/thumb/9/9a/Museu_da_Escravatura_%28Luanda%2C_Angola%29.jpg/1280px-Museu_da_Escravatura_%28Luanda%2C_Angola%29.jpg"}, {"id": "angola-iron-palace-luanda", "name": "Iron Palace, Luanda", "country": "Angola", "lat": -12.48833, "lng": 18.495, "category": "Architectural landmark", "photo": "https://upload.wikimedia.org/wikipedia/commons/6/62/Pal%C3%A1cio_de_Ferro.jpg"}, {"id": "antigua-and-barbuda-nelson-s-dockyard", "name": "Nelson's Dockyard", "country": "Antigua and Barbuda", "lat": 17.06167, "lng": -61.805, "category": "Visit-worthy landmark", "photo": "https://upload.wikimedia.org/wikipedia/commons/f/f1/Nelson%27s_Dockyard.jpg"}, {"id": "antigua-and-barbuda-shirley-heights-lookout", "name": "Shirley Heights Lookout", "country": "Antigua and Barbuda", "lat": 17.06167, "lng": -61.805, "category": "Visit-worthy landmark", "photo": "https://upload.wikimedia.org/wikipedia/commons/thumb/2/29/English_Harbour.jpg/1280px-English_Harbour.jpg"}, {"id": "antigua-and-barbuda-st-john-s-cathedral", "name": "St. John's Cathedral", "country": "Antigua and Barbuda", "lat": 17.06167, "lng": -61.805, "category": "Religious monument", "photo": "https://upload.wikimedia.org/wikipedia/commons/thumb/7/71/St_Johns_Antigua_2012.jpg/1280px-St_Johns_Antigua_2012.jpg"}, {"id": "argentina-obelisco-de-buenos-aires", "name": "Obelisco de Buenos Aires", "country": "Argentina", "lat": -39.32035, "lng": -69.71958, "category": "Visit-worthy landmark", "photo": "https://upload.wikimedia.org/wikipedia/commons/thumb/f/fc/Buenos_Aires_%2820234294752%29.jpg/1280px-Buenos_Aires_%2820234294752%29.jpg"}, {"id": "argentina-casa-rosada", "name": "Casa Rosada", "country": "Argentina", "lat": -39.32035, "lng": -69.71958, "category": "Visit-worthy landmark", "photo": "https://upload.wikimedia.org/wikipedia/commons/thumb/9/95/Casa_Rosada_exterior_from_Plaza_de_Mayo.JPG/1280px-Casa_Rosada_exterior_from_Plaza_de_Mayo.JPG"}, {"id": "argentina-cueva-de-las-manos", "name": "Cueva de las Manos", "country": "Argentina", "lat": -47.15, "lng": -70.66667, "category": "Visit-worthy landmark", "photo": "https://upload.wikimedia.org/wikipedia/commons/thumb/f/f4/SantaCruz-CuevaManos-P2210651b.jpg/1280px-SantaCruz-CuevaManos-P2210651b.jpg"}, {"id": "armenia-geghard-monastery", "name": "Geghard Monastery", "country": "Armenia", "lat": 40.47107, "lng": 44.6007, "category": "Religious monument", "photo": "https://upload.wikimedia.org/wikipedia/commons/thumb/7/7b/Monasterio_de_Geghard%2C_Armenia%2C_2016-10-02%2C_DD_63.jpg/1280px-Monasterio_de_Geghard%2C_Armenia%2C_2016-10-02%2C_DD_63.jpg"}, {"id": "armenia-garni-temple", "name": "Garni Temple", "country": "Armenia", "lat": 40.47107, "lng": 44.6007, "category": "Religious monument", "photo": "https://upload.wikimedia.org/wikipedia/commons/thumb/2/2c/Garni_temple_2021_drone.jpg/1280px-Garni_temple_2021_drone.jpg"}, {"id": "armenia-etchmiadzin-cathedral-and-zvartnots", "name": "Etchmiadzin Cathedral and Zvartnots", "country": "Armenia", "lat": 40.47107, "lng": 44.6007, "category": "Religious monument", "photo": "https://upload.wikimedia.org/wikipedia/commons/thumb/6/6f/%D4%B7%D5%BB%D5%B4%D5%AB%D5%A1%D5%AE%D5%B6%D5%AB_%D5%84%D5%A1%D5%B5%D6%80_%D5%8F%D5%A1%D5%B3%D5%A1%D6%80.jpg/1280px-%D4%B7%D5%BB%D5%B4%D5%AB%D5%A1%D5%AE%D5%B6%D5%AB_%D5%84%D5%A1%D5%B5%D6%80_%D5%8F%D5%A1%D5%B3%D5%A1%D6%80.jpg"}, {"id": "austria-schonbrunn-palace", "name": "Schönbrunn Palace", "country": "Austria", "lat": 48.07663, "lng": 15.88182, "category": "Architectural landmark", "photo": "https://upload.wikimedia.org/wikipedia/commons/thumb/c/c9/Wien_-_Schloss_Sch%C3%B6nbrunn.JPG/1280px-Wien_-_Schloss_Sch%C3%B6nbrunn.JPG"}, {"id": "austria-st-stephens-cathedral-vienna", "name": "St. Stephen’s Cathedral, Vienna", "country": "Austria", "lat": 48.07663, "lng": 15.88182, "category": "Religious monument", "photo": "https://upload.wikimedia.org/wikipedia/commons/thumb/d/dd/Wien_-_Stephansdom_%281%29.JPG/1280px-Wien_-_Stephansdom_%281%29.JPG"}, {"id": "austria-hohensalzburg-fortress", "name": "Hohensalzburg Fortress", "country": "Austria", "lat": 48.07663, "lng": 15.88182, "category": "Architectural landmark", "photo": "https://upload.wikimedia.org/wikipedia/commons/thumb/d/dd/Salzburg_-_Festung_Hohensalzburg.JPG/1280px-Salzburg_-_Festung_Hohensalzburg.JPG"}, {"id": "azerbaijan-maiden-tower-baku", "name": "Maiden Tower, Baku", "country": "Azerbaijan", "lat": 40.22006, "lng": 49.16957, "category": "Architectural landmark", "photo": "https://upload.wikimedia.org/wikipedia/commons/thumb/f/fc/Maiden_tower_IMG_8521.jpg/1280px-Maiden_tower_IMG_8521.jpg"}, {"id": "azerbaijan-palace-of-the-shirvanshahs", "name": "Palace of the Shirvanshahs", "country": "Azerbaijan", "lat": 40.22006, "lng": 49.16957, "category": "Architectural landmark", "photo": "https://upload.wikimedia.org/wikipedia/commons/thumb/5/50/Palace_of_Shirvanshahs_common.JPG/1280px-Palace_of_Shirvanshahs_common.JPG"}, {"id": "azerbaijan-gobustan-rock-art-cultural-landscape", "name": "Gobustan Rock Art Cultural Landscape", "country": "Azerbaijan", "lat": 40.125, "lng": 49.375, "category": "Natural landmark", "photo": "https://upload.wikimedia.org/wikipedia/commons/thumb/f/f4/Qobustan.jpg/1280px-Qobustan.jpg"}, {"id": "bahamas-queen-s-staircase-nassau", "name": "Queen's Staircase, Nassau", "country": "Bahamas", "lat": 24.26167, "lng": -76.005, "category": "Visit-worthy landmark", "photo": "https://upload.wikimedia.org/wikipedia/commons/thumb/5/5d/Queen%27s_staircase%2C_Nassau%2C_Bahamas.jpg/1280px-Queen%27s_staircase%2C_Nassau%2C_Bahamas.jpg"}, {"id": "bahamas-fort-charlotte-nassau", "name": "Fort Charlotte, Nassau", "country": "Bahamas", "lat": 24.26167, "lng": -76.005, "category": "Architectural landmark", "photo": "https://upload.wikimedia.org/wikipedia/commons/5/55/Fort_Charlotte%2C_Nassau%2C_The_Bahamas.jpg"}, {"id": "bahamas-parliament-square-nassau", "name": "Parliament Square, Nassau", "country": "Bahamas", "lat": 24.26167, "lng": -76.005, "category": "Civic / cultural landmark", "photo": "https://upload.wikimedia.org/wikipedia/commons/thumb/8/8a/Coat_of_arms_of_the_Bahamas.svg/1280px-Coat_of_arms_of_the_Bahamas.svg.png"}, {"id": "bahrain-qal-at-al-bahrain", "name": "Qal'at al-Bahrain", "country": "Bahrain", "lat": 26.23306, "lng": 50.52222, "category": "Visit-worthy landmark", "photo": "https://upload.wikimedia.org/wikipedia/commons/thumb/8/83/Bahrain_Fort_March_2015.JPG/1280px-Bahrain_Fort_March_2015.JPG"}, {"id": "bahrain-bahrain-pearling-path-muharraq", "name": "Bahrain Pearling Path, Muharraq", "country": "Bahrain", "lat": 26.20345, "lng": 50.54431, "category": "Visit-worthy landmark", "photo": "https://upload.wikimedia.org/wikipedia/commons/thumb/2/21/Muharraq_Bayt_Siyadi_1.jpg/1280px-Muharraq_Bayt_Siyadi_1.jpg"}, {"id": "bahrain-al-fateh-grand-mosque", "name": "Al Fateh Grand Mosque", "country": "Bahrain", "lat": 26.20345, "lng": 50.54431, "category": "Religious monument", "photo": "https://upload.wikimedia.org/wikipedia/commons/thumb/9/9d/AlFatehMosque.jpg/1280px-AlFatehMosque.jpg"}, {"id": "bangladesh-lalbagh-fort-dhaka", "name": "Lalbagh Fort, Dhaka", "country": "Bangladesh", "lat": 23.77963, "lng": 89.38395, "category": "Architectural landmark", "photo": "https://upload.wikimedia.org/wikipedia/commons/thumb/4/43/%E0%A6%B2%E0%A6%BE%E0%A6%B2_%E0%A6%95%E0%A7%87%E0%A6%B2%E0%A7%8D%E0%A6%B2%E0%A6%BE%E0%A6%B0_%E0%A6%AE%E0%A6%BE%E0%A6%AF%E0%A6%BC%E0%A6%BE.jpg/1280px-%E0%A6%B2%E0%A6%BE%E0%A6%B2_%E0%A6%95%E0%A7%87%E0%A6%B2%E0%A7%8D%E0%A6%B2%E0%A6%BE%E0%A6%B0_%E0%A6%AE%E0%A6%BE%E0%A6%AF%E0%A6%BC%E0%A6%BE.jpg"}, {"id": "bangladesh-historic-mosque-city-of-bagerhat", "name": "Historic Mosque City of Bagerhat", "country": "Bangladesh", "lat": 22.66667, "lng": 89.8, "category": "Religious monument", "photo": "https://upload.wikimedia.org/wikipedia/commons/thumb/4/4f/Sixty_Dome_Mosque%2CBagerhat.jpg/1280px-Sixty_Dome_Mosque%2CBagerhat.jpg"}, {"id": "bangladesh-ruins-of-the-buddhist-vihara-at-paharpur", "name": "Ruins of the Buddhist Vihara at Paharpur", "country": "Bangladesh", "lat": 25.03333, "lng": 88.98333, "category": "Archaeological site", "photo": "https://upload.wikimedia.org/wikipedia/commons/thumb/4/42/Paharpur_Buddhist_Bihar.jpg/1280px-Paharpur_Buddhist_Bihar.jpg"}, {"id": "barbados-historic-bridgetown-and-its-garrison", "name": "Historic Bridgetown and its Garrison", "country": "Barbados", "lat": 13.09667, "lng": -59.61389, "category": "Architectural landmark", "photo": "https://upload.wikimedia.org/wikipedia/commons/1/1a/Bridgetown2.jpg"}, {"id": "barbados-parliament-buildings-bridgetown", "name": "Parliament Buildings, Bridgetown", "country": "Barbados", "lat": 13.11741, "lng": -59.58928, "category": "Architectural landmark", "photo": "https://upload.wikimedia.org/wikipedia/commons/thumb/e/e6/Barbados%2C_Karibik_-_The_West-Wing_of_the_Parliament_of_Barbados_and_the_Clock_Tower_-_panoramio.jpg/1280px-Barbados%2C_Karibik_-_The_West-Wing_of_the_Parliament_of_Barbados_and_the_Clock_Tower_-_panoramio.jpg"}, {"id": "barbados-george-washington-house-barbados", "name": "George Washington House, Barbados", "country": "Barbados", "lat": 13.11741, "lng": -59.58928, "category": "Visit-worthy landmark", "photo": "https://upload.wikimedia.org/wikipedia/commons/thumb/0/0e/GEORGE_WASHINGTON_HOUSE_-_BARBADOS.jpg/1280px-GEORGE_WASHINGTON_HOUSE_-_BARBADOS.jpg"}, {"id": "belarus-mir-castle-complex", "name": "Mir Castle Complex", "country": "Belarus", "lat": 53.45108, "lng": 26.47272, "category": "Architectural landmark", "photo": "https://upload.wikimedia.org/wikipedia/commons/thumb/d/d6/%D0%9A%D0%BE%D0%BC%D0%BF%D0%BB%D0%B5%D0%BA%D1%81_%D0%9C%D0%B8%D1%80%D1%81%D0%BA%D0%BE%D0%B3%D0%BE_%D0%B7%D0%B0%D0%BC%D0%BA%D0%B0.JPG/1280px-%D0%9A%D0%BE%D0%BC%D0%BF%D0%BB%D0%B5%D0%BA%D1%81_%D0%9C%D0%B8%D1%80%D1%81%D0%BA%D0%BE%D0%B3%D0%BE_%D0%B7%D0%B0%D0%BC%D0%BA%D0%B0.JPG"}, {"id": "belarus-nesvizh-castle", "name": "Nesvizh Castle", "country": "Belarus", "lat": 54.24788, "lng": 26.48513, "category": "Architectural landmark", "photo": "https://upload.wikimedia.org/wikipedia/commons/8/84/%D0%9D%D1%8F%D1%81%D0%B2%D1%96%D0%B6_%D1%96_%D0%9D%D1%8F%D1%81%D0%B2%D1%96%D0%B6%D1%81%D0%BA%D1%96_%D0%B7%D0%B0%D0%BC%D0%B0%D0%BA_12.jpg"}, {"id": "belarus-victory-square-minsk", "name": "Victory Square, Minsk", "country": "Belarus", "lat": 54.24788, "lng": 26.48513, "category": "Civic / cultural landmark", "photo": "https://upload.wikimedia.org/wikipedia/commons/thumb/9/9a/Victory-square.jpg/1280px-Victory-square.jpg"}, {"id": "belgium-grand-place-brussels", "name": "Grand-Place, Brussels", "country": "Belgium", "lat": 50.84668, "lng": 4.35242, "category": "Visit-worthy landmark", "photo": "https://upload.wikimedia.org/wikipedia/commons/thumb/2/26/Grand-Place%2C_Brussels_-_panorama%2C_June_2018.jpg/1280px-Grand-Place%2C_Brussels_-_panorama%2C_June_2018.jpg"}, {"id": "belgium-atomium-brussels", "name": "Atomium, Brussels", "country": "Belgium", "lat": 50.87225, "lng": 4.37983, "category": "Visit-worthy landmark", "photo": "https://upload.wikimedia.org/wikipedia/commons/thumb/c/cf/Brussels_-_Atomium_2022.jpg/1280px-Brussels_-_Atomium_2022.jpg"}, {"id": "belgium-belfry-of-bruges", "name": "Belfry of Bruges", "country": "Belgium", "lat": 50.87225, "lng": 4.37983, "category": "Visit-worthy landmark", "photo": "https://upload.wikimedia.org/wikipedia/commons/thumb/3/37/Brugge_Belfort_HDR.jpg/1280px-Brugge_Belfort_HDR.jpg"}, {"id": "belize-xunantunich-maya-ruins", "name": "Xunantunich Maya Ruins", "country": "Belize", "lat": 16.89815, "lng": -87.55882, "category": "Archaeological site", "photo": "https://upload.wikimedia.org/wikipedia/commons/thumb/2/29/Xunantunich_Belize_1_19.jpg/1280px-Xunantunich_Belize_1_19.jpg"}, {"id": "belize-caracol-archaeological-reserve", "name": "Caracol Archaeological Reserve", "country": "Belize", "lat": 16.89815, "lng": -87.55882, "category": "Archaeological site", "photo": "https://upload.wikimedia.org/wikipedia/commons/thumb/6/62/Panorama_atop_Caracol.png/1280px-Panorama_atop_Caracol.png"}, {"id": "belize-belize-barrier-reef-reserve-system", "name": "Belize Barrier Reef Reserve System", "country": "Belize", "lat": 16.75, "lng": -87.05833, "category": "Natural landmark", "photo": "https://upload.wikimedia.org/wikipedia/commons/a/a8/Satellite_image_of_Belize_in_March_31%2C_2002.jpg"}, {"id": "benin-royal-palaces-of-abomey", "name": "Royal Palaces of Abomey", "country": "Benin", "lat": 7.18333, "lng": 1.98333, "category": "Architectural landmark", "photo": "https://upload.wikimedia.org/wikipedia/commons/thumb/d/d3/Abomey_2006_1.jpg/1280px-Abomey_2006_1.jpg"}, {"id": "benin-door-of-no-return-ouidah", "name": "Door of No Return, Ouidah", "country": "Benin", "lat": 7.86975, "lng": 2.06308, "category": "Visit-worthy landmark", "photo": "https://upload.wikimedia.org/wikipedia/commons/thumb/3/33/Door_of_no_return.jpg/1280px-Door_of_no_return.jpg"}, {"id": "benin-temple-of-pythons-ouidah", "name": "Temple of Pythons, Ouidah", "country": "Benin", "lat": 7.86975, "lng": 2.06308, "category": "Religious monument", "photo": "https://upload.wikimedia.org/wikipedia/commons/thumb/1/11/Entr%C3%A9e_du_Temple_des_Pythons_%28Ouidah%29.jpg/1280px-Entr%C3%A9e_du_Temple_des_Pythons_%28Ouidah%29.jpg"}, {"id": "bhutan-tiger-s-nest-monastery-paro-taktsang", "name": "Tiger's Nest Monastery (Paro Taktsang)", "country": "Bhutan", "lat": 27.51167, "lng": 90.495, "category": "Religious monument", "photo": "https://upload.wikimedia.org/wikipedia/commons/thumb/a/a6/Paro_Taktsang%2C_Bhutan_%28edited%29.jpg/1280px-Paro_Taktsang%2C_Bhutan_%28edited%29.jpg"}, {"id": "bhutan-punakha-dzong", "name": "Punakha Dzong", "country": "Bhutan", "lat": 27.51167, "lng": 90.495, "category": "Visit-worthy landmark", "photo": "https://upload.wikimedia.org/wikipedia/commons/thumb/5/5a/Punakha_Dzong%2C_Bhutan_02.jpg/1280px-Punakha_Dzong%2C_Bhutan_02.jpg"}, {"id": "bhutan-buddha-dordenma-thimphu", "name": "Buddha Dordenma, Thimphu", "country": "Bhutan", "lat": 27.51167, "lng": 90.495, "category": "Visit-worthy landmark", "photo": "https://upload.wikimedia.org/wikipedia/en/thumb/4/4e/Buddha_Dordenma.jpg/1280px-Buddha_Dordenma.jpg"}, {"id": "bolivia-salar-de-uyuni", "name": "Salar de Uyuni", "country": "Bolivia", "lat": -18.50642, "lng": -64.31725, "category": "Visit-worthy landmark", "photo": "https://upload.wikimedia.org/wikipedia/commons/4/4a/Salar_Uyuni_au01.jpg"}, {"id": "bolivia-tiwanaku-archaeological-site", "name": "Tiwanaku Archaeological Site", "country": "Bolivia", "lat": -18.50642, "lng": -64.31725, "category": "Archaeological site", "photo": "https://upload.wikimedia.org/wikipedia/commons/thumb/0/0c/PUERTA_DEL_SOL_TIWANAKU.jpg/1280px-PUERTA_DEL_SOL_TIWANAKU.jpg"}, {"id": "bolivia-fuerte-de-samaipata", "name": "Fuerte de Samaipata", "country": "Bolivia", "lat": -18.16667, "lng": -63.81667, "category": "Visit-worthy landmark", "photo": "https://upload.wikimedia.org/wikipedia/commons/thumb/6/64/View_of_Fort_Samaipata_Rock.jpg/1280px-View_of_Fort_Samaipata_Rock.jpg"}, {"id": "bosnia-and-herzegovina-stari-most-mostar", "name": "Stari Most, Mostar", "country": "Bosnia and Herzegovina", "lat": 43.71819, "lng": 18.37632, "category": "Visit-worthy landmark", "photo": "https://upload.wikimedia.org/wikipedia/commons/thumb/d/d7/Mostar_Old_Town_Panorama_2007.jpg/1280px-Mostar_Old_Town_Panorama_2007.jpg"}, {"id": "bosnia-and-herzegovina-mehmed-pasa-sokolovic-bridge-visegrad", "name": "Mehmed Paša Sokolović Bridge, Višegrad", "country": "Bosnia and Herzegovina", "lat": 43.71819, "lng": 18.37632, "category": "Architectural landmark", "photo": "https://upload.wikimedia.org/wikipedia/commons/thumb/1/1d/Sokollu_Mehmed_Pasha_%28detail%29_exploring_the_surroundings_of_Szigetv%C3%A1r._N%C3%BCzhet%2C_fol._22a.jpg/1280px-Sokollu_Mehmed_Pasha_%28detail%29_exploring_the_surroundings_of_Szigetv%C3%A1r._N%C3%BCzhet%2C_fol._22a.jpg"}, {"id": "bosnia-and-herzegovina-sebilj-fountain-and-bascarsija-sarajevo", "name": "Sebilj Fountain and Baščaršija, Sarajevo", "country": "Bosnia and Herzegovina", "lat": 43.71819, "lng": 18.37632, "category": "Visit-worthy landmark", "photo": "https://upload.wikimedia.org/wikipedia/commons/thumb/1/1d/Sebilj_%28by_day%29.jpg/1280px-Sebilj_%28by_day%29.jpg"}, {"id": "botswana-tsodilo-hills", "name": "Tsodilo Hills", "country": "Botswana", "lat": -18.75, "lng": 21.73333, "category": "Visit-worthy landmark", "photo": "https://upload.wikimedia.org/wikipedia/commons/1/17/Tsodilo_rock_paintings_1.jpg"}, {"id": "botswana-okavango-delta", "name": "Okavango Delta", "country": "Botswana", "lat": -19.28333, "lng": 22.9, "category": "Natural landmark", "photo": "https://upload.wikimedia.org/wikipedia/commons/thumb/e/e8/Okavango_Delta%2C_Botswana1.jpg/1280px-Okavango_Delta%2C_Botswana1.jpg"}, {"id": "botswana-three-dikgosi-monument-gaborone", "name": "Three Dikgosi Monument, Gaborone", "country": "Botswana", "lat": -19.12623, "lng": 22.38012, "category": "Civic / cultural landmark", "photo": "https://upload.wikimedia.org/wikipedia/en/f/fb/3_Kgosis_Monument_Image_in_Gaborone1.jpeg"}, {"id": "brunei-sultan-omar-ali-saifuddien-mosque", "name": "Sultan Omar Ali Saifuddien Mosque", "country": "Brunei", "lat": 4.51167, "lng": 114.66167, "category": "Religious monument", "photo": "https://upload.wikimedia.org/wikipedia/commons/thumb/9/98/Portrait_of_D.Y.M.M._Maulana_Al-Sultan_Sir_Omar_Ali_Saifuddin_Saadul_Khairi_Waddin.jpg/1280px-Portrait_of_D.Y.M.M._Maulana_Al-Sultan_Sir_Omar_Ali_Saifuddin_Saadul_Khairi_Waddin.jpg"}, {"id": "brunei-jame-asr-hassanil-bolkiah-mosque", "name": "Jame' Asr Hassanil Bolkiah Mosque", "country": "Brunei", "lat": 4.51167, "lng": 114.66167, "category": "Religious monument", "photo": "https://upload.wikimedia.org/wikipedia/commons/thumb/8/81/Jame%27Asr_Hassanil_Bolkiah_Mosque_%2818404307540%29.jpg/1280px-Jame%27Asr_Hassanil_Bolkiah_Mosque_%2818404307540%29.jpg"}, {"id": "brunei-kampong-ayer-water-village", "name": "Kampong Ayer Water Village", "country": "Brunei", "lat": 4.51167, "lng": 114.66167, "category": "Visit-worthy landmark", "photo": "https://upload.wikimedia.org/wikipedia/commons/thumb/5/56/BN-bsb-kampong-ayer.jpg/1280px-BN-bsb-kampong-ayer.jpg"}, {"id": "bulgaria-rila-monastery", "name": "Rila Monastery", "country": "Bulgaria", "lat": 42.11667, "lng": 23.4, "category": "Religious monument", "photo": "https://upload.wikimedia.org/wikipedia/commons/thumb/4/46/Rila_Monastery%2C_August_2013.jpg/1280px-Rila_Monastery%2C_August_2013.jpg"}, {"id": "bulgaria-alexander-nevsky-cathedral-sofia", "name": "Alexander Nevsky Cathedral, Sofia", "country": "Bulgaria", "lat": 42.70617, "lng": 25.20062, "category": "Religious monument", "photo": "https://upload.wikimedia.org/wikipedia/commons/thumb/c/c0/Catedral_de_Alejandro_Nevski_--_2019_--_Sof%C3%ADa%2C_Bulgaria.jpg/1280px-Catedral_de_Alejandro_Nevski_--_2019_--_Sof%C3%ADa%2C_Bulgaria.jpg"}, {"id": "bulgaria-madara-rider", "name": "Madara Rider", "country": "Bulgaria", "lat": 43.3, "lng": 27.15, "category": "Visit-worthy landmark", "photo": "https://upload.wikimedia.org/wikipedia/commons/thumb/1/18/JE%C5%B9DZIEC_Z_MADARY.JPG/1280px-JE%C5%B9DZIEC_Z_MADARY.JPG"}, {"id": "burkina-faso-ruins-of-loropeni", "name": "Ruins of Loropéni", "country": "Burkina Faso", "lat": 12.08333, "lng": -2.52611, "category": "Archaeological site", "photo": "https://upload.wikimedia.org/wikipedia/commons/thumb/a/ac/2016.05-441-131ap_wall_Lorop%C3%A9ni_Ruins_nr.Lorop%C3%A9ni%28Poni_Prv.%29%2CBF_sun15may2016-1106h.jpg/1280px-2016.05-441-131ap_wall_Lorop%C3%A9ni_Ruins_nr.Lorop%C3%A9ni%28Poni_Prv.%29%2CBF_sun15may2016-1106h.jpg"}, {"id": "burkina-faso-grand-mosque-of-bobo-dioulasso", "name": "Grand Mosque of Bobo-Dioulasso", "country": "Burkina Faso", "lat": 12.08333, "lng": -2.52611, "category": "Religious monument", "photo": "https://upload.wikimedia.org/wikipedia/commons/thumb/c/c6/BoboDioulasso-Market.JPG/1280px-BoboDioulasso-Market.JPG"}, {"id": "burkina-faso-monument-des-heros-nationaux-ouagadougou", "name": "Monument des Héros Nationaux, Ouagadougou", "country": "Burkina Faso", "lat": 12.08333, "lng": -2.52611, "category": "Civic / cultural landmark", "photo": "https://upload.wikimedia.org/wikipedia/commons/a/ac/Place_Memorial_auz_Heros_Nationaux_in_Burkina_Faso%2C_2009_%28cropped%29.jpg"}, {"id": "burundi-gishora-drum-sanctuary", "name": "Gishora Drum Sanctuary", "country": "Burundi", "lat": -3.48833, "lng": 29.995, "category": "Visit-worthy landmark", "photo": "https://upload.wikimedia.org/wikipedia/commons/thumb/9/90/Dioc%C3%A8se_Gitega_y.jpg/1280px-Dioc%C3%A8se_Gitega_y.jpg"}, {"id": "burundi-livingstonestanley-monument-mugere", "name": "Livingstone–Stanley Monument, Mugere", "country": "Burundi", "lat": -3.48833, "lng": 29.995, "category": "Civic / cultural landmark", "photo": "https://upload.wikimedia.org/wikipedia/commons/f/fd/Livingstone_monument_burundi.jpg"}, {"id": "burundi-national-museum-of-gitega", "name": "National Museum of Gitega", "country": "Burundi", "lat": -3.48833, "lng": 29.995, "category": "Civic / cultural landmark", "photo": "https://upload.wikimedia.org/wikipedia/commons/thumb/9/90/Dioc%C3%A8se_Gitega_y.jpg/1280px-Dioc%C3%A8se_Gitega_y.jpg"}, {"id": "cambodia-angkor-wat", "name": "Angkor Wat", "country": "Cambodia", "lat": 13.43333, "lng": 103.83333, "category": "Visit-worthy landmark", "photo": "https://upload.wikimedia.org/wikipedia/commons/thumb/4/41/Angkor_Wat.jpg/1280px-Angkor_Wat.jpg"}, {"id": "cambodia-bayon-temple-angkor-thom", "name": "Bayon Temple, Angkor Thom", "country": "Cambodia", "lat": 13.43333, "lng": 103.83333, "category": "Natural landmark", "photo": "https://upload.wikimedia.org/wikipedia/commons/thumb/2/22/Angkor_Thom_%28II%29.jpg/1280px-Angkor_Thom_%28II%29.jpg"}, {"id": "cambodia-royal-palace-phnom-penh", "name": "Royal Palace, Phnom Penh", "country": "Cambodia", "lat": 13.45358, "lng": 103.90915, "category": "Architectural landmark", "photo": "https://upload.wikimedia.org/wikipedia/commons/thumb/4/4c/Aerial_reconnaissance_view_of_the_Monivong_Bridge%2C_Phnom_Penh_17_April_1975.jpg/1280px-Aerial_reconnaissance_view_of_the_Monivong_Bridge%2C_Phnom_Penh_17_April_1975.jpg"}, {"id": "cameroon-foumban-royal-palace", "name": "Foumban Royal Palace", "country": "Cameroon", "lat": 3.39029, "lng": 13.38284, "category": "Architectural landmark", "photo": "https://upload.wikimedia.org/wikipedia/commons/a/a7/Bamun_sultan_palace.jpg"}, {"id": "cameroon-reunification-monument-yaounde", "name": "Reunification Monument, Yaoundé", "country": "Cameroon", "lat": 3.39029, "lng": 13.38284, "category": "Civic / cultural landmark", "photo": "https://upload.wikimedia.org/wikipedia/en/thumb/d/dc/Monument_r%C3%A9unification_Buea.jpg/1280px-Monument_r%C3%A9unification_Buea.jpg"}, {"id": "cameroon-dja-faunal-reserve", "name": "Dja Faunal Reserve", "country": "Cameroon", "lat": 3.0, "lng": 13.0, "category": "Visit-worthy landmark", "photo": "https://upload.wikimedia.org/wikipedia/commons/thumb/8/89/Dja_River_and_pirogue.JPG/1280px-Dja_River_and_pirogue.JPG"}, {"id": "canada-cn-tower-toronto", "name": "CN Tower, Toronto", "country": "Canada", "lat": 47.15517, "lng": -90.43152, "category": "Architectural landmark", "photo": "https://upload.wikimedia.org/wikipedia/commons/thumb/b/b7/CN_Tower_from_Puente_de_Luz%2C_Toronto%2C_Ontario%2C_2025-08-25_01.jpg/500px-CN_Tower_from_Puente_de_Luz%2C_Toronto%2C_Ontario%2C_2025-08-25_01.jpg"}, {"id": "canada-chateau-frontenac-quebec-city", "name": "Château Frontenac, Québec City", "country": "Canada", "lat": 47.15517, "lng": -90.43152, "category": "Visit-worthy landmark", "photo": "https://upload.wikimedia.org/wikipedia/commons/thumb/8/8d/Ch%C3%A2teau_Frontenac_02.jpg/1280px-Ch%C3%A2teau_Frontenac_02.jpg"}, {"id": "canada-parliament-hill-ottawa", "name": "Parliament Hill, Ottawa", "country": "Canada", "lat": 47.15517, "lng": -90.43152, "category": "Civic / cultural landmark", "photo": "https://upload.wikimedia.org/wikipedia/commons/thumb/b/b5/Ottawa_-_ON_-_Stadtansicht.jpg/1280px-Ottawa_-_ON_-_Stadtansicht.jpg"}, {"id": "cape-verde-cidade-velha-historic-centre-of-ribeira-grande", "name": "Cidade Velha, Historic Centre of Ribeira Grande", "country": "Cape Verde", "lat": 14.91514, "lng": -23.60519, "category": "Visit-worthy landmark", "photo": "https://upload.wikimedia.org/wikipedia/commons/0/09/Bela-vista-net-Santiago-map.jpg"}, {"id": "cape-verde-farol-de-dona-maria-pia-praia", "name": "Farol de Dona Maria Pia, Praia", "country": "Cape Verde", "lat": 15.23658, "lng": -23.72143, "category": "Visit-worthy landmark", "photo": "https://upload.wikimedia.org/wikipedia/commons/thumb/a/ad/Farol_D._Maria_Pia-2.jpg/1280px-Farol_D._Maria_Pia-2.jpg"}, {"id": "cape-verde-presidential-palace-praia", "name": "Presidential Palace, Praia", "country": "Cape Verde", "lat": 15.23658, "lng": -23.72143, "category": "Architectural landmark", "photo": "https://upload.wikimedia.org/wikipedia/commons/thumb/1/16/Praia-Pal%C3%A1cio_Presidencial_%281%29.jpg/1280px-Praia-Pal%C3%A1cio_Presidencial_%281%29.jpg"}, {"id": "central-african-republic-notre-dame-of-bangui-cathedral", "name": "Notre-Dame of Bangui Cathedral", "country": "Central African Republic", "lat": 7.76066, "lng": 20.69765, "category": "Religious monument", "photo": "https://upload.wikimedia.org/wikipedia/commons/thumb/b/b5/Bangui_collage.png/1280px-Bangui_collage.png"}, {"id": "central-african-republic-barthelemy-boganda-monument-bangui", "name": "Barthélemy Boganda Monument, Bangui", "country": "Central African Republic", "lat": 7.76066, "lng": 20.69765, "category": "Civic / cultural landmark", "photo": "https://upload.wikimedia.org/wikipedia/commons/thumb/1/18/FIFA_World_Cup_2010_Uruguay_Ghana.jpg/1280px-FIFA_World_Cup_2010_Uruguay_Ghana.jpg"}, {"id": "central-african-republic-manovo-gounda-st-floris-national-park", "name": "Manovo-Gounda St Floris National Park", "country": "Central African Republic", "lat": 9.0, "lng": 21.5, "category": "Natural landmark", "photo": "https://upload.wikimedia.org/wikipedia/commons/thumb/3/34/Manovo.jpg/1280px-Manovo.jpg"}, {"id": "chad-lakes-of-ounianga", "name": "Lakes of Ounianga", "country": "Chad", "lat": 19.055, "lng": 20.50556, "category": "Natural landmark", "photo": "https://upload.wikimedia.org/wikipedia/commons/thumb/1/18/Ounianga_Serir.jpg/1280px-Ounianga_Serir.jpg"}, {"id": "chad-grand-mosque-of-n-djamena", "name": "Grand Mosque of N'Djamena", "country": "Chad", "lat": 17.85352, "lng": 20.06021, "category": "Religious monument", "photo": "https://upload.wikimedia.org/wikipedia/commons/f/fd/Mosqu%C3%A9e_Roi_Fay%C3%A7al_de_N%27djamena.jpg"}, {"id": "chad-al-mouna-cultural-center-n-djamena", "name": "Al-Mouna Cultural Center, N'Djamena", "country": "Chad", "lat": 17.85352, "lng": 20.06021, "category": "Visit-worthy landmark", "photo": "https://upload.wikimedia.org/wikipedia/commons/thumb/2/2e/Building_of_National_Assembly_DJAMENA.jpg/1280px-Building_of_National_Assembly_DJAMENA.jpg"}, {"id": "chile-moai-of-rapa-nui-easter-island", "name": "Moai of Rapa Nui / Easter Island", "country": "Chile", "lat": -34.57815, "lng": -84.53315, "category": "Natural landmark", "photo": "https://upload.wikimedia.org/wikipedia/commons/4/4a/Rapanookee_vona.jpg"}, {"id": "chile-la-moneda-palace-santiago", "name": "La Moneda Palace, Santiago", "country": "Chile", "lat": -34.57815, "lng": -84.53315, "category": "Architectural landmark", "photo": "https://upload.wikimedia.org/wikipedia/commons/thumb/2/21/Palacio_de_La_Moneda_-_miguelreflex.jpg/1280px-Palacio_de_La_Moneda_-_miguelreflex.jpg"}, {"id": "chile-churches-of-chiloe", "name": "Churches of Chiloé", "country": "Chile", "lat": -34.57815, "lng": -84.53315, "category": "Religious monument", "photo": "https://upload.wikimedia.org/wikipedia/commons/thumb/6/62/Castro%2C_Chile_-_panoramio_%2816%29.jpg/1280px-Castro%2C_Chile_-_panoramio_%2816%29.jpg"}, {"id": "china-great-wall-of-china", "name": "Great Wall of China", "country": "China", "lat": 38.43019, "lng": 107.56463, "category": "Architectural landmark", "photo": "https://upload.wikimedia.org/wikipedia/commons/thumb/2/23/The_Great_Wall_of_China_at_Jinshanling-edit.jpg/1280px-The_Great_Wall_of_China_at_Jinshanling-edit.jpg"}, {"id": "china-forbidden-city-beijing", "name": "Forbidden City, Beijing", "country": "China", "lat": 38.43019, "lng": 107.56463, "category": "Visit-worthy landmark", "photo": "https://upload.wikimedia.org/wikipedia/commons/thumb/e/ef/The_Forbidden_City_-_View_from_Coal_Hill.jpg/1280px-The_Forbidden_City_-_View_from_Coal_Hill.jpg"}, {"id": "china-terracotta-army-xian", "name": "Terracotta Army, Xi’an", "country": "China", "lat": 38.43019, "lng": 107.56463, "category": "Visit-worthy landmark", "photo": "https://upload.wikimedia.org/wikipedia/commons/thumb/8/88/51714-Terracota-Army.jpg/1280px-51714-Terracota-Army.jpg"}, {"id": "colombia-castillo-san-felipe-de-barajas-cartagena", "name": "Castillo San Felipe de Barajas, Cartagena", "country": "Colombia", "lat": -3.62055, "lng": -73.83556, "category": "Visit-worthy landmark", "photo": "https://upload.wikimedia.org/wikipedia/commons/thumb/b/bc/62_-_Carthag%C3%A8ne_-_D%C3%A9cembre_2008.jpg/1280px-62_-_Carthag%C3%A8ne_-_D%C3%A9cembre_2008.jpg"}, {"id": "colombia-san-agustin-archaeological-park", "name": "San Agustín Archaeological Park", "country": "Colombia", "lat": -3.62055, "lng": -73.83556, "category": "Natural landmark", "photo": "https://upload.wikimedia.org/wikipedia/commons/thumb/7/75/Parque_Arqueol%C3%B3gico_de_San_Agust%C3%ADn-Mesita_A_06.jpg/1280px-Parque_Arqueol%C3%B3gico_de_San_Agust%C3%ADn-Mesita_A_06.jpg"}, {"id": "colombia-salt-cathedral-of-zipaquira", "name": "Salt Cathedral of Zipaquirá", "country": "Colombia", "lat": -3.62055, "lng": -73.83556, "category": "Religious monument", "photo": "https://upload.wikimedia.org/wikipedia/commons/thumb/c/c6/The_creation_of_man_-_Zipaquira.JPG/1280px-The_creation_of_man_-_Zipaquira.JPG"}, {"id": "comoros-old-friday-mosque-moroni", "name": "Old Friday Mosque, Moroni", "country": "Comoros", "lat": -12.155, "lng": 44.245, "category": "Religious monument", "photo": "https://upload.wikimedia.org/wikipedia/commons/thumb/9/94/Moroni-Harbour.jpg/1280px-Moroni-Harbour.jpg"}, {"id": "comoros-iconi-friday-mosque", "name": "Iconi Friday Mosque", "country": "Comoros", "lat": -12.155, "lng": 44.245, "category": "Religious monument", "photo": "https://upload.wikimedia.org/wikipedia/commons/5/58/Tribune_Ouest_Malouzini.jpg"}, {"id": "comoros-karthala-volcano", "name": "Karthala Volcano", "country": "Comoros", "lat": -12.155, "lng": 44.245, "category": "Natural landmark", "photo": "https://upload.wikimedia.org/wikipedia/commons/8/8e/Mount_Karthala_%2811000398163%29.jpg"}, {"id": "costa-rica-pre-columbian-stone-spheres-of-the-diquis", "name": "Pre-Columbian Stone Spheres of the Diquís", "country": "Costa Rica", "lat": 6.82144, "lng": -86.32013, "category": "Visit-worthy landmark", "photo": "https://upload.wikimedia.org/wikipedia/commons/9/94/Parque_de_las_Esferas_de_Costa_Rica.JPG"}, {"id": "costa-rica-teatro-nacional-de-costa-rica", "name": "Teatro Nacional de Costa Rica", "country": "Costa Rica", "lat": 6.82144, "lng": -86.32013, "category": "Visit-worthy landmark", "photo": "https://upload.wikimedia.org/wikipedia/commons/thumb/6/69/Costa_Rica-Teatro_Nacional.JPG/1280px-Costa_Rica-Teatro_Nacional.JPG"}, {"id": "costa-rica-cocos-island-national-park", "name": "Cocos Island National Park", "country": "Costa Rica", "lat": 5.53333, "lng": -87.06667, "category": "Natural landmark", "photo": "https://upload.wikimedia.org/wikipedia/commons/9/99/Isla_del_coco.jpg"}, {"id": "croatia-dubrovnik-old-city-walls", "name": "Dubrovnik Old City Walls", "country": "Croatia", "lat": 43.11491, "lng": 16.99389, "category": "Architectural landmark", "photo": "https://upload.wikimedia.org/wikipedia/commons/thumb/1/1b/Dubrovnik_s_24.jpg/1280px-Dubrovnik_s_24.jpg"}, {"id": "croatia-diocletians-palace-split", "name": "Diocletian’s Palace, Split", "country": "Croatia", "lat": 43.11491, "lng": 16.99389, "category": "Architectural landmark", "photo": "https://upload.wikimedia.org/wikipedia/commons/thumb/d/d8/Croatia-01239_-_The_Peristil_%289551533404%29.jpg/1280px-Croatia-01239_-_The_Peristil_%289551533404%29.jpg"}, {"id": "croatia-plitvice-lakes-national-park", "name": "Plitvice Lakes National Park", "country": "Croatia", "lat": 43.11491, "lng": 16.99389, "category": "Natural landmark", "photo": "https://upload.wikimedia.org/wikipedia/commons/thumb/3/39/View_in_Plitvice_Lakes_National_Park.jpg/1280px-View_in_Plitvice_Lakes_National_Park.jpg"}, {"id": "cuba-old-havana-and-its-fortifications", "name": "Old Havana and its Fortifications", "country": "Cuba", "lat": 22.0475, "lng": -80.69602, "category": "Architectural landmark", "photo": "https://upload.wikimedia.org/wikipedia/commons/thumb/3/3b/Havana_Map_-_Habana_Vieja.png/1280px-Havana_Map_-_Habana_Vieja.png"}, {"id": "cuba-castillo-de-la-real-fuerza", "name": "Castillo de la Real Fuerza", "country": "Cuba", "lat": 22.0475, "lng": -80.69602, "category": "Visit-worthy landmark", "photo": "https://upload.wikimedia.org/wikipedia/commons/thumb/e/e6/Parte_lateral_del_Castillo_de_la_Real_Fuerza.jpg/1280px-Parte_lateral_del_Castillo_de_la_Real_Fuerza.jpg"}, {"id": "cuba-vinales-valley", "name": "Viñales Valley", "country": "Cuba", "lat": 22.0475, "lng": -80.69602, "category": "Natural landmark", "photo": "https://upload.wikimedia.org/wikipedia/commons/thumb/c/ca/Vi%C3%B1ales_Valley.jpg/1280px-Vi%C3%B1ales_Valley.jpg"}, {"id": "cyprus-paphos-archaeological-park", "name": "Paphos Archaeological Park", "country": "Cyprus", "lat": 34.75833, "lng": 32.40556, "category": "Natural landmark", "photo": "https://upload.wikimedia.org/wikipedia/commons/thumb/7/72/Paphos_panorama_-_Cyprus_-_3_May_2015.jpg/1280px-Paphos_panorama_-_Cyprus_-_3_May_2015.jpg"}, {"id": "cyprus-kykkos-monastery", "name": "Kykkos Monastery", "country": "Cyprus", "lat": 34.78359, "lng": 32.88264, "category": "Religious monument", "photo": "https://upload.wikimedia.org/wikipedia/commons/thumb/6/6d/Kykkos_monastery_from_the_air.jpg/1280px-Kykkos_monastery_from_the_air.jpg"}, {"id": "cyprus-choirokoitia", "name": "Choirokoitia", "country": "Cyprus", "lat": 34.79833, "lng": 33.34333, "category": "Visit-worthy landmark", "photo": "https://upload.wikimedia.org/wikipedia/commons/thumb/e/ea/Khirokitia_near_Larnaca_01-2017_img7.jpg/1280px-Khirokitia_near_Larnaca_01-2017_img7.jpg"}, {"id": "czechia-charles-bridge-prague", "name": "Charles Bridge, Prague", "country": "Czechia", "lat": 49.42137, "lng": 16.12683, "category": "Architectural landmark", "photo": "https://upload.wikimedia.org/wikipedia/commons/thumb/a/a7/Prague_%286365119737%29.jpg/1280px-Prague_%286365119737%29.jpg"}, {"id": "czechia-prague-castle", "name": "Prague Castle", "country": "Czechia", "lat": 49.42137, "lng": 16.12683, "category": "Architectural landmark", "photo": "https://upload.wikimedia.org/wikipedia/commons/thumb/a/a7/Prague_%286365119737%29.jpg/1280px-Prague_%286365119737%29.jpg"}, {"id": "czechia-cesky-krumlov-historic-centre", "name": "Český Krumlov Historic Centre", "country": "Czechia", "lat": 49.42137, "lng": 16.12683, "category": "Visit-worthy landmark", "photo": "https://upload.wikimedia.org/wikipedia/commons/thumb/c/cb/Flag_of_the_Czech_Republic.svg/1280px-Flag_of_the_Czech_Republic.svg.png"}, {"id": "dr-congo-virunga-national-park", "name": "Virunga National Park", "country": "DR Congo", "lat": 0.91667, "lng": 29.16667, "category": "Natural landmark", "photo": "https://upload.wikimedia.org/wikipedia/commons/thumb/2/2b/Virunga_National_Park-107997.jpg/1280px-Virunga_National_Park-107997.jpg"}, {"id": "dr-congo-garamba-national-park", "name": "Garamba National Park", "country": "DR Congo", "lat": 4.0, "lng": 29.25, "category": "Natural landmark", "photo": "https://upload.wikimedia.org/wikipedia/commons/thumb/6/6f/Flag_of_the_Democratic_Republic_of_the_Congo.svg/1280px-Flag_of_the_Democratic_Republic_of_the_Congo.svg.png"}, {"id": "dr-congo-okapi-wildlife-reserve", "name": "Okapi Wildlife Reserve", "country": "DR Congo", "lat": 2.29321, "lng": 28.90432, "category": "Visit-worthy landmark", "photo": "https://upload.wikimedia.org/wikipedia/commons/thumb/8/8f/Epulu_Okapi_Reserve.jpg/1280px-Epulu_Okapi_Reserve.jpg"}, {"id": "denmark-the-little-mermaid-copenhagen", "name": "The Little Mermaid, Copenhagen", "country": "Denmark", "lat": 55.83744, "lng": 12.24175, "category": "Visit-worthy landmark", "photo": "https://upload.wikimedia.org/wikipedia/en/thumb/7/7a/Copenhagen_-_the_little_mermaid_statue_-_2013.jpg/1280px-Copenhagen_-_the_little_mermaid_statue_-_2013.jpg"}, {"id": "denmark-kronborg-castle", "name": "Kronborg Castle", "country": "Denmark", "lat": 56.03889, "lng": 12.62083, "category": "Architectural landmark", "photo": "https://upload.wikimedia.org/wikipedia/commons/thumb/f/f5/Kronborg_002.JPG/1280px-Kronborg_002.JPG"}, {"id": "denmark-roskilde-cathedral", "name": "Roskilde Cathedral", "country": "Denmark", "lat": 55.64222, "lng": 12.07972, "category": "Religious monument", "photo": "https://upload.wikimedia.org/wikipedia/commons/thumb/d/d9/Roskilde_Cathedral_aerial_crop.jpg/1280px-Roskilde_Cathedral_aerial_crop.jpg"}, {"id": "djibouti-lake-assal", "name": "Lake Assal", "country": "Djibouti", "lat": 11.51167, "lng": 42.995, "category": "Natural landmark", "photo": "https://upload.wikimedia.org/wikipedia/commons/b/b5/Lake_Assal_NASA.jpg"}, {"id": "djibouti-hamoudi-mosque-djibouti-city", "name": "Hamoudi Mosque, Djibouti City", "country": "Djibouti", "lat": 11.51167, "lng": 42.995, "category": "Religious monument", "photo": "https://upload.wikimedia.org/wikipedia/commons/0/06/Hamoudi_Mosque_%28210510633%29.jpeg"}, {"id": "djibouti-people-s-palace-djibouti-city", "name": "People's Palace, Djibouti City", "country": "Djibouti", "lat": 11.51167, "lng": 42.995, "category": "Architectural landmark", "photo": "https://upload.wikimedia.org/wikipedia/commons/2/26/Djibcapital.jpg"}, {"id": "dominica-morne-trois-pitons-national-park", "name": "Morne Trois Pitons National Park", "country": "Dominica", "lat": 15.26667, "lng": -61.28333, "category": "Natural landmark", "photo": "https://upload.wikimedia.org/wikipedia/commons/thumb/7/74/Dominica_Hiking_Path.JPG/1280px-Dominica_Hiking_Path.JPG"}, {"id": "dominica-boiling-lake", "name": "Boiling Lake", "country": "Dominica", "lat": 15.31112, "lng": -61.2974, "category": "Natural landmark", "photo": "https://upload.wikimedia.org/wikipedia/commons/thumb/6/61/Dominica_Boiling_Lake.jpg/1280px-Dominica_Boiling_Lake.jpg"}, {"id": "dominica-fort-shirley-cabrits-national-park", "name": "Fort Shirley, Cabrits National Park", "country": "Dominica", "lat": 15.31112, "lng": -61.2974, "category": "Natural landmark", "photo": "https://upload.wikimedia.org/wikipedia/commons/6/68/Tanetane-Dominica.jpg"}, {"id": "dominican-republic-colonial-city-of-santo-domingo", "name": "Colonial City of Santo Domingo", "country": "Dominican Republic", "lat": 18.48333, "lng": -69.91667, "category": "Visit-worthy landmark", "photo": "https://upload.wikimedia.org/wikipedia/commons/thumb/4/46/Calle_las_Damas%2C_Santo_Domingo%2C_Zona_Colonial.jpg/1280px-Calle_las_Damas%2C_Santo_Domingo%2C_Zona_Colonial.jpg"}, {"id": "dominican-republic-alcazar-de-colon", "name": "Alcázar de Colón", "country": "Dominican Republic", "lat": 18.63642, "lng": -70.13815, "category": "Visit-worthy landmark", "photo": "https://upload.wikimedia.org/wikipedia/commons/thumb/b/bd/Maison_du_gouverneur_Don_Diego_Colomb.jpg/1280px-Maison_du_gouverneur_Don_Diego_Colomb.jpg"}, {"id": "dominican-republic-faro-a-colon", "name": "Faro a Colón", "country": "Dominican Republic", "lat": 18.63642, "lng": -70.13815, "category": "Visit-worthy landmark", "photo": "https://upload.wikimedia.org/wikipedia/commons/thumb/b/ba/Santo_Domingo.El_Faro_a_Col%C3%B3n.20170402.jpg/1280px-Santo_Domingo.El_Faro_a_Col%C3%B3n.20170402.jpg"}, {"id": "ecuador-historic-centre-of-quito", "name": "Historic Centre of Quito", "country": "Ecuador", "lat": -7.04574, "lng": -75.69167, "category": "Visit-worthy landmark", "photo": "https://upload.wikimedia.org/wikipedia/commons/thumb/5/5b/FACHADA_ASAMBLEA_NACIONAL._QUITO%2C_20_DE_FEBRERO_2020._01.jpg/1280px-FACHADA_ASAMBLEA_NACIONAL._QUITO%2C_20_DE_FEBRERO_2020._01.jpg"}, {"id": "ecuador-mitad-del-mundo-monument", "name": "Mitad del Mundo Monument", "country": "Ecuador", "lat": -7.04574, "lng": -75.69167, "category": "Civic / cultural landmark", "photo": "https://upload.wikimedia.org/wikipedia/commons/thumb/0/05/Mitad_del_Mundo%2C_Quito%2C_Ecuador%2C_2015-07-22%2C_DD_15.JPG/1280px-Mitad_del_Mundo%2C_Quito%2C_Ecuador%2C_2015-07-22%2C_DD_15.JPG"}, {"id": "ecuador-galapagos-islands", "name": "Galápagos Islands", "country": "Ecuador", "lat": -7.04574, "lng": -75.69167, "category": "Natural landmark", "photo": "https://upload.wikimedia.org/wikipedia/commons/thumb/6/64/Lobo_marino_%28Zalophus_californianus_wollebaeki%29%2C_Punta_Pitt%2C_isla_de_San_Crist%C3%B3bal%2C_islas_Gal%C3%A1pagos%2C_Ecuador%2C_2015-07-24%2C_DD_11.JPG/1280px-Lobo_marino_%28Zalophus_californianus_wollebaeki%29%2C_Punta_Pitt%2C_isla_de_San_Crist%C3%B3bal%2C_islas_Gal%C3%A1pagos%2C_Ecuador%2C_2015-07-24%2C_DD_11.JPG"}, {"id": "el-salvador-joya-de-ceren-archaeological-site", "name": "Joya de Cerén Archaeological Site", "country": "El Salvador", "lat": 13.83139, "lng": -89.06584, "category": "Archaeological site", "photo": "https://upload.wikimedia.org/wikipedia/commons/thumb/3/35/ES_Joya_Ceren_05_2012_Estructura_9_Area_2_Tamazcal_wide_angle_1479.JPG/1280px-ES_Joya_Ceren_05_2012_Estructura_9_Area_2_Tamazcal_wide_angle_1479.JPG"}, {"id": "el-salvador-santa-ana-cathedral", "name": "Santa Ana Cathedral", "country": "El Salvador", "lat": 13.83139, "lng": -89.06584, "category": "Religious monument", "photo": "https://upload.wikimedia.org/wikipedia/commons/0/0b/Santa_Ana_ES_Photomontage.jpg"}, {"id": "el-salvador-monumento-al-divino-salvador-del-mundo", "name": "Monumento al Divino Salvador del Mundo", "country": "El Salvador", "lat": 13.83139, "lng": -89.06584, "category": "Civic / cultural landmark", "photo": "https://upload.wikimedia.org/wikipedia/commons/4/4f/Salvadordelmundo.jpg"}, {"id": "equatorial-guinea-santa-isabel-cathedral-malabo", "name": "Santa Isabel Cathedral, Malabo", "country": "Equatorial Guinea", "lat": 2.01167, "lng": 9.995, "category": "Religious monument", "photo": "https://upload.wikimedia.org/wikipedia/commons/thumb/7/74/Hotel_de_Federaciones_02.jpg/1280px-Hotel_de_Federaciones_02.jpg"}, {"id": "equatorial-guinea-basilica-of-the-immaculate-conception-mongomo", "name": "Basilica of the Immaculate Conception, Mongomo", "country": "Equatorial Guinea", "lat": 2.01167, "lng": 9.995, "category": "Religious monument", "photo": "https://upload.wikimedia.org/wikipedia/commons/c/c6/Stade-Mongomo.jpg"}, {"id": "equatorial-guinea-pico-basile", "name": "Pico Basilé", "country": "Equatorial Guinea", "lat": 2.01167, "lng": 9.995, "category": "Visit-worthy landmark", "photo": "https://upload.wikimedia.org/wikipedia/commons/thumb/1/15/Pico_Basil%C3%A9.jpg/1280px-Pico_Basil%C3%A9.jpg"}, {"id": "eritrea-asmara-modernist-city-centre", "name": "Asmara Modernist City Centre", "country": "Eritrea", "lat": 15.01167, "lng": 38.995, "category": "Visit-worthy landmark", "photo": "https://upload.wikimedia.org/wikipedia/commons/thumb/8/87/Asmara_Montage.png/1280px-Asmara_Montage.png"}, {"id": "eritrea-fiat-tagliero-building-asmara", "name": "Fiat Tagliero Building, Asmara", "country": "Eritrea", "lat": 15.01167, "lng": 38.995, "category": "Civic / cultural landmark", "photo": "https://upload.wikimedia.org/wikipedia/commons/thumb/4/45/Fiat_tagliero%2C_08.JPG/1280px-Fiat_tagliero%2C_08.JPG"}, {"id": "eritrea-tank-graveyard-asmara", "name": "Tank Graveyard, Asmara", "country": "Eritrea", "lat": 15.01167, "lng": 38.995, "category": "Visit-worthy landmark", "photo": "https://upload.wikimedia.org/wikipedia/commons/b/bf/Iraqi_tank_graveyard_landscape.jpg"}, {"id": "estonia-tallinn-old-town", "name": "Tallinn Old Town", "country": "Estonia", "lat": 59.17204, "lng": 25.70037, "category": "Visit-worthy landmark", "photo": "https://upload.wikimedia.org/wikipedia/commons/thumb/e/ed/Old_Town_of_Tallinn%2C_Tallinn%2C_Estonia_-_panoramio_%2858%29.jpg/1280px-Old_Town_of_Tallinn%2C_Tallinn%2C_Estonia_-_panoramio_%2858%29.jpg"}, {"id": "estonia-alexander-nevsky-cathedral-tallinn", "name": "Alexander Nevsky Cathedral, Tallinn", "country": "Estonia", "lat": 59.17204, "lng": 25.70037, "category": "Religious monument", "photo": "https://upload.wikimedia.org/wikipedia/commons/thumb/b/b7/Catedral_de_Alejandro_Nevsky%2C_Tallin%2C_Estonia%2C_2012-08-11%2C_DD_46.JPG/1280px-Catedral_de_Alejandro_Nevsky%2C_Tallin%2C_Estonia%2C_2012-08-11%2C_DD_46.JPG"}, {"id": "estonia-kadriorg-palace", "name": "Kadriorg Palace", "country": "Estonia", "lat": 59.17204, "lng": 25.70037, "category": "Architectural landmark", "photo": "https://upload.wikimedia.org/wikipedia/commons/thumb/5/5e/Tallinn_asv2022-04_img55_Kadriorg_Palace.jpg/1280px-Tallinn_asv2022-04_img55_Kadriorg_Palace.jpg"}, {"id": "eswatini-mantenga-cultural-village", "name": "Mantenga Cultural Village", "country": "Eswatini", "lat": -26.48833, "lng": 31.495, "category": "Visit-worthy landmark", "photo": "https://upload.wikimedia.org/wikipedia/commons/thumb/a/aa/Hhohho_in_Eswatini.svg/1280px-Hhohho_in_Eswatini.svg.png"}, {"id": "eswatini-king-sobhuza-ii-memorial-park", "name": "King Sobhuza II Memorial Park", "country": "Eswatini", "lat": -26.48833, "lng": 31.495, "category": "Natural landmark", "photo": "https://upload.wikimedia.org/wikipedia/commons/2/24/King_Sobhuza_II%2C_1945_%28cropped%29.jpg"}, {"id": "eswatini-sibebe-rock", "name": "Sibebe Rock", "country": "Eswatini", "lat": -26.48833, "lng": 31.495, "category": "Natural landmark", "photo": "https://upload.wikimedia.org/wikipedia/commons/thumb/0/0c/Granite_monolith.jpg/1280px-Granite_monolith.jpg"}, {"id": "ethiopia-rock-hewn-churches-of-lalibela", "name": "Rock-Hewn Churches of Lalibela", "country": "Ethiopia", "lat": 11.9042, "lng": 38.29514, "category": "Natural landmark", "photo": "https://upload.wikimedia.org/wikipedia/commons/thumb/a/aa/Lalibela%2C_san_giorgio%2C_esterno_24.jpg/1280px-Lalibela%2C_san_giorgio%2C_esterno_24.jpg"}, {"id": "ethiopia-aksum-obelisks", "name": "Aksum Obelisks", "country": "Ethiopia", "lat": 14.13019, "lng": 38.71861, "category": "Archaeological site", "photo": "https://upload.wikimedia.org/wikipedia/commons/thumb/6/69/Rome_Stele.jpg/1280px-Rome_Stele.jpg"}, {"id": "ethiopia-fasil-ghebbi-gondar", "name": "Fasil Ghebbi, Gondar", "country": "Ethiopia", "lat": 11.9042, "lng": 38.29514, "category": "Visit-worthy landmark", "photo": "https://upload.wikimedia.org/wikipedia/commons/thumb/8/8f/Fasilides_Palace_01.jpg/1280px-Fasilides_Palace_01.jpg"}, {"id": "fiji-levuka-historical-port-town", "name": "Levuka Historical Port Town", "country": "Fiji", "lat": -17.68338, "lng": 178.83453, "category": "Visit-worthy landmark", "photo": "https://upload.wikimedia.org/wikipedia/commons/thumb/5/52/BeachStreetLevuka.jpg/1280px-BeachStreetLevuka.jpg"}, {"id": "fiji-sri-siva-subramaniya-temple-nadi", "name": "Sri Siva Subramaniya Temple, Nadi", "country": "Fiji", "lat": -17.77719, "lng": 177.69911, "category": "Religious monument", "photo": "https://upload.wikimedia.org/wikipedia/commons/8/83/Nadi.jpg"}, {"id": "fiji-sacred-heart-cathedral-suva", "name": "Sacred Heart Cathedral, Suva", "country": "Fiji", "lat": -17.77719, "lng": 177.69911, "category": "Religious monument", "photo": "https://upload.wikimedia.org/wikipedia/commons/thumb/8/83/Sacred_Heart_Cathedral%2C_Suva_Fiji_July_2014.jpg/1280px-Sacred_Heart_Cathedral%2C_Suva_Fiji_July_2014.jpg"}, {"id": "finland-helsinki-cathedral", "name": "Helsinki Cathedral", "country": "Finland", "lat": 60.98757, "lng": 22.7706, "category": "Religious monument", "photo": "https://upload.wikimedia.org/wikipedia/commons/thumb/7/7d/Kirkko3.png/1280px-Kirkko3.png"}, {"id": "finland-suomenlinna-fortress", "name": "Suomenlinna Fortress", "country": "Finland", "lat": 60.98757, "lng": 22.7706, "category": "Architectural landmark", "photo": "https://upload.wikimedia.org/wikipedia/commons/thumb/a/af/Suomenlinna_aerial.JPG/1280px-Suomenlinna_aerial.JPG"}, {"id": "finland-old-rauma", "name": "Old Rauma", "country": "Finland", "lat": 61.12806, "lng": 21.51167, "category": "Visit-worthy landmark", "photo": "https://upload.wikimedia.org/wikipedia/commons/thumb/0/0a/Vanha_Rauma_vesitornista.jpg/1280px-Vanha_Rauma_vesitornista.jpg"}, {"id": "gabon-lope-okanda-cultural-landscape", "name": "Lopé-Okanda Cultural Landscape", "country": "Gabon", "lat": -0.83333, "lng": 11.66833, "category": "Visit-worthy landmark", "photo": "https://upload.wikimedia.org/wikipedia/commons/8/8d/Lop%C3%A9_National_Park_river_crop.jpg"}, {"id": "gabon-st-michael-s-cathedral-libreville", "name": "St. Michael's Cathedral, Libreville", "country": "Gabon", "lat": -0.83333, "lng": 11.66833, "category": "Religious monument", "photo": "https://upload.wikimedia.org/wikipedia/commons/7/7e/Portrait_photograph_of_Archbishop_Marcel_Lefebvre.jpg"}, {"id": "gabon-leon-mba-memorial-libreville", "name": "Léon Mba Memorial, Libreville", "country": "Gabon", "lat": -0.83333, "lng": 11.66833, "category": "Civic / cultural landmark", "photo": "https://upload.wikimedia.org/wikipedia/commons/d/d5/L%C3%A9on_M%27ba_1964.jpg"}, {"id": "gambia-kunta-kinteh-island", "name": "Kunta Kinteh Island", "country": "Gambia", "lat": 13.31617, "lng": -16.35719, "category": "Natural landmark", "photo": "https://upload.wikimedia.org/wikipedia/commons/0/00/River_gambia_galleryfull.jpg"}, {"id": "gambia-stone-circles-of-senegambia", "name": "Stone Circles of Senegambia", "country": "Gambia", "lat": 13.69111, "lng": -15.5225, "category": "Visit-worthy landmark", "photo": "https://upload.wikimedia.org/wikipedia/commons/thumb/5/54/Wassu_Stone_Circle.jpg/1280px-Wassu_Stone_Circle.jpg"}, {"id": "gambia-arch-22-banjul", "name": "Arch 22, Banjul", "country": "Gambia", "lat": 13.5032, "lng": -15.96195, "category": "Visit-worthy landmark", "photo": "https://upload.wikimedia.org/wikipedia/commons/thumb/b/bb/Gambia%2C_Banjul%2C_Arch_22.jpg/1280px-Gambia%2C_Banjul%2C_Arch_22.jpg"}, {"id": "georgia-gergeti-trinity-church", "name": "Gergeti Trinity Church", "country": "Georgia", "lat": 42.34083, "lng": 43.48139, "category": "Religious monument", "photo": "https://upload.wikimedia.org/wikipedia/commons/thumb/4/4c/Gergeti_Trinity_Church_09.23.jpg/1280px-Gergeti_Trinity_Church_09.23.jpg"}, {"id": "georgia-svetitskhoveli-cathedral-mtskheta", "name": "Svetitskhoveli Cathedral, Mtskheta", "country": "Georgia", "lat": 42.34083, "lng": 43.48139, "category": "Religious monument", "photo": "https://upload.wikimedia.org/wikipedia/commons/thumb/b/bd/Svetitskhoveli_Cathedral_09.23_%283%29.jpg/1280px-Svetitskhoveli_Cathedral_09.23_%283%29.jpg"}, {"id": "georgia-vardzia-cave-monastery", "name": "Vardzia Cave Monastery", "country": "Georgia", "lat": 42.34083, "lng": 43.48139, "category": "Natural landmark", "photo": "https://upload.wikimedia.org/wikipedia/commons/thumb/d/d2/Vardzia_Cave_Monastery_05.jpg/1280px-Vardzia_Cave_Monastery_05.jpg"}, {"id": "germany-brandenburg-gate-berlin", "name": "Brandenburg Gate, Berlin", "country": "Germany", "lat": 50.5443, "lng": 9.09344, "category": "Architectural landmark", "photo": "https://upload.wikimedia.org/wikipedia/commons/thumb/a/a6/Brandenburger_Tor_abends.jpg/1280px-Brandenburger_Tor_abends.jpg"}, {"id": "germany-neuschwanstein-castle", "name": "Neuschwanstein Castle", "country": "Germany", "lat": 50.5443, "lng": 9.09344, "category": "Architectural landmark", "photo": "https://upload.wikimedia.org/wikipedia/commons/thumb/f/f8/Schloss_Neuschwanstein_2013.jpg/1280px-Schloss_Neuschwanstein_2013.jpg"}, {"id": "germany-cologne-cathedral", "name": "Cologne Cathedral", "country": "Germany", "lat": 50.5443, "lng": 9.09344, "category": "Religious monument", "photo": "https://upload.wikimedia.org/wikipedia/commons/thumb/0/04/K%C3%B6lner_Dom_-_Westfassade_2022_ohne_Ger%C3%BCst-0968_b.jpg/1280px-K%C3%B6lner_Dom_-_Westfassade_2022_ohne_Ger%C3%BCst-0968_b.jpg"}, {"id": "ghana-cape-coast-castle", "name": "Cape Coast Castle", "country": "Ghana", "lat": 6.60571, "lng": -1.36315, "category": "Architectural landmark", "photo": "https://upload.wikimedia.org/wikipedia/commons/thumb/a/a0/Cape_Coast_Castle%2C_Cape_Coast%2C_Ghana.JPG/1280px-Cape_Coast_Castle%2C_Cape_Coast%2C_Ghana.JPG"}, {"id": "ghana-kwame-nkrumah-memorial-park", "name": "Kwame Nkrumah Memorial Park", "country": "Ghana", "lat": 6.60571, "lng": -1.36315, "category": "Natural landmark", "photo": "https://upload.wikimedia.org/wikipedia/commons/3/3b/Fathia_Nkrumah_with_son_Gamal.jpg"}, {"id": "ghana-larabanga-mosque", "name": "Larabanga Mosque", "country": "Ghana", "lat": 6.60571, "lng": -1.36315, "category": "Religious monument", "photo": "https://upload.wikimedia.org/wikipedia/commons/thumb/3/31/Larabanga_Mosque_Ghana.jpg/1280px-Larabanga_Mosque_Ghana.jpg"}, {"id": "greece-acropolis-of-athens", "name": "Acropolis of Athens", "country": "Greece", "lat": 38.3316, "lng": 22.97345, "category": "Visit-worthy landmark", "photo": "https://upload.wikimedia.org/wikipedia/commons/thumb/2/2c/1029_Acropolis_of_Athens_in_Greece_at_night_Photo_by_Giles_Laurent.jpg/1280px-1029_Acropolis_of_Athens_in_Greece_at_night_Photo_by_Giles_Laurent.jpg"}, {"id": "greece-santorini-blue-domes-oia", "name": "Santorini Blue Domes, Oia", "country": "Greece", "lat": 38.3316, "lng": 22.97345, "category": "Visit-worthy landmark", "photo": "https://upload.wikimedia.org/wikipedia/commons/thumb/3/37/Oia_sunset_-_panoramio_%282%29.jpg/1280px-Oia_sunset_-_panoramio_%282%29.jpg"}, {"id": "greece-meteora-monasteries", "name": "Meteora Monasteries", "country": "Greece", "lat": 38.3316, "lng": 22.97345, "category": "Visit-worthy landmark", "photo": "https://upload.wikimedia.org/wikipedia/commons/thumb/7/7c/Meteora%27s_monastery_2.jpg/1280px-Meteora%27s_monastery_2.jpg"}, {"id": "grenada-fort-george-st-georges", "name": "Fort George, St. George’s", "country": "Grenada", "lat": 12.1413, "lng": -61.68, "category": "Architectural landmark", "photo": "https://upload.wikimedia.org/wikipedia/commons/thumb/b/b0/St_Georges_Grenada_Fort_-_panoramio.jpg/1280px-St_Georges_Grenada_Fort_-_panoramio.jpg"}, {"id": "grenada-grenada-national-museum", "name": "Grenada National Museum", "country": "Grenada", "lat": 12.15167, "lng": -61.68667, "category": "Civic / cultural landmark", "photo": "https://upload.wikimedia.org/wikipedia/commons/thumb/f/f5/CH-53D_HMM-261_Grenada_Okt1983.jpeg/1280px-CH-53D_HMM-261_Grenada_Okt1983.jpeg"}, {"id": "grenada-carib-s-leap-sauteurs", "name": "Carib's Leap, Sauteurs", "country": "Grenada", "lat": 12.1413, "lng": -61.68, "category": "Visit-worthy landmark", "photo": "https://upload.wikimedia.org/wikipedia/commons/thumb/5/59/%22Welcome_to_Sauteurs%22_sign.jpg/1280px-%22Welcome_to_Sauteurs%22_sign.jpg"}, {"id": "guatemala-tikal-national-park", "name": "Tikal National Park", "country": "Guatemala", "lat": 17.21667, "lng": -89.61667, "category": "Natural landmark", "photo": "https://upload.wikimedia.org/wikipedia/commons/thumb/7/75/Tikal_3.jpg/1280px-Tikal_3.jpg"}, {"id": "guatemala-antigua-guatemala", "name": "Antigua Guatemala", "country": "Guatemala", "lat": 14.56667, "lng": -90.66667, "category": "Visit-worthy landmark", "photo": "https://upload.wikimedia.org/wikipedia/commons/thumb/e/ec/Flag_of_Guatemala.svg/1280px-Flag_of_Guatemala.svg.png"}, {"id": "guatemala-santa-catalina-arch-antigua", "name": "Santa Catalina Arch, Antigua", "country": "Guatemala", "lat": 15.86867, "lng": -90.10088, "category": "Visit-worthy landmark", "photo": "https://upload.wikimedia.org/wikipedia/commons/thumb/b/b6/Antigua_-_Arco.jpg/1280px-Antigua_-_Arco.jpg"}, {"id": "guinea-grand-mosque-of-conakry", "name": "Grand Mosque of Conakry", "country": "Guinea", "lat": 11.01167, "lng": -10.005, "category": "Religious monument", "photo": "https://upload.wikimedia.org/wikipedia/en/thumb/5/5b/Mosqu%C3%A9e_Fay%C3%A7al_corrig%C3%A9e.jpg/1280px-Mosqu%C3%A9e_Fay%C3%A7al_corrig%C3%A9e.jpg"}, {"id": "guinea-monument-du-22-novembre-conakry", "name": "Monument du 22 Novembre, Conakry", "country": "Guinea", "lat": 11.01167, "lng": -10.005, "category": "Civic / cultural landmark", "photo": "https://upload.wikimedia.org/wikipedia/commons/thumb/5/51/Ville_de_Conaky.jpg/1280px-Ville_de_Conaky.jpg"}, {"id": "guinea-fouta-djallon-highlands", "name": "Fouta Djallon Highlands", "country": "Guinea", "lat": 11.01167, "lng": -10.005, "category": "Visit-worthy landmark", "photo": "https://upload.wikimedia.org/wikipedia/commons/thumb/8/8c/Guinea_Highlands_map.png/1280px-Guinea_Highlands_map.png"}, {"id": "guinea-bissau-fortaleza-de-sao-jose-da-amura-bissau", "name": "Fortaleza de São José da Amura, Bissau", "country": "Guinea-Bissau", "lat": 12.01167, "lng": -15.005, "category": "Architectural landmark", "photo": "https://upload.wikimedia.org/wikipedia/commons/thumb/4/44/Bissau-Stroossenzeen--w.jpg/1280px-Bissau-Stroossenzeen--w.jpg"}, {"id": "guinea-bissau-presidential-palace-ruins-bissau", "name": "Presidential Palace ruins, Bissau", "country": "Guinea-Bissau", "lat": 12.01167, "lng": -15.005, "category": "Architectural landmark", "photo": "https://upload.wikimedia.org/wikipedia/commons/thumb/0/01/Flag_of_Guinea-Bissau.svg/1280px-Flag_of_Guinea-Bissau.svg.png"}, {"id": "guinea-bissau-bissagos-islands", "name": "Bissagos Islands", "country": "Guinea-Bissau", "lat": 12.01167, "lng": -15.005, "category": "Natural landmark", "photo": "https://upload.wikimedia.org/wikipedia/commons/thumb/0/06/L%27Archipel_des_Bijagos_vu_par_Sentinel_2.jpg/1280px-L%27Archipel_des_Bijagos_vu_par_Sentinel_2.jpg"}, {"id": "guyana-st-george-s-cathedral-georgetown", "name": "St. George's Cathedral, Georgetown", "country": "Guyana", "lat": 5.01167, "lng": -59.005, "category": "Religious monument", "photo": "https://upload.wikimedia.org/wikipedia/commons/thumb/5/5c/20191121_Guyana_0048_Georgetown_sRGB_%2849295795336%29.jpg/1280px-20191121_Guyana_0048_Georgetown_sRGB_%2849295795336%29.jpg"}, {"id": "guyana-demerara-harbour-bridge", "name": "Demerara Harbour Bridge", "country": "Guyana", "lat": 5.01167, "lng": -59.005, "category": "Architectural landmark", "photo": "https://upload.wikimedia.org/wikipedia/commons/thumb/e/ec/20191122_Guyana_0171_Georgetown_sRGB_%2849295935467%29.jpg/1280px-20191122_Guyana_0171_Georgetown_sRGB_%2849295935467%29.jpg"}, {"id": "guyana-kaieteur-falls", "name": "Kaieteur Falls", "country": "Guyana", "lat": 5.01167, "lng": -59.005, "category": "Natural landmark", "photo": "https://upload.wikimedia.org/wikipedia/commons/thumb/e/e2/GuyanaKaieteurFalls2004.jpg/1280px-GuyanaKaieteurFalls2004.jpg"}, {"id": "haiti-citadelle-laferriere", "name": "Citadelle Laferrière", "country": "Haiti", "lat": 19.1912, "lng": -72.3575, "category": "Architectural landmark", "photo": "https://upload.wikimedia.org/wikipedia/commons/thumb/7/76/Citadelle_Laferri%C3%A8re.jpg/1280px-Citadelle_Laferri%C3%A8re.jpg"}, {"id": "haiti-sans-souci-palace", "name": "Sans-Souci Palace", "country": "Haiti", "lat": 19.1912, "lng": -72.3575, "category": "Architectural landmark", "photo": "https://upload.wikimedia.org/wikipedia/commons/thumb/c/c2/Palais_du_sans-soucis.JPG/1280px-Palais_du_sans-soucis.JPG"}, {"id": "haiti-iron-market-port-au-prince", "name": "Iron Market, Port-au-Prince", "country": "Haiti", "lat": 19.1912, "lng": -72.3575, "category": "Visit-worthy landmark", "photo": "https://upload.wikimedia.org/wikipedia/commons/thumb/e/ea/Ouest_Department%2C_Haiti_-_panoramio_%285%29.jpg/1280px-Ouest_Department%2C_Haiti_-_panoramio_%285%29.jpg"}, {"id": "honduras-copan-ruins", "name": "Copán Ruins", "country": "Honduras", "lat": 15.50535, "lng": -85.60142, "category": "Archaeological site", "photo": "https://upload.wikimedia.org/wikipedia/commons/1/15/Copan_sculpture.jpg"}, {"id": "honduras-fortress-of-san-fernando-de-omoa", "name": "Fortress of San Fernando de Omoa", "country": "Honduras", "lat": 15.50535, "lng": -85.60142, "category": "Architectural landmark", "photo": "https://upload.wikimedia.org/wikipedia/commons/thumb/c/cf/San_Fernando_de_Omoa_Fortress_walls.jpg/1280px-San_Fernando_de_Omoa_Fortress_walls.jpg"}, {"id": "honduras-rio-platano-biosphere-reserve", "name": "Rio Platano Biosphere Reserve", "country": "Honduras", "lat": 15.74444, "lng": -84.675, "category": "Visit-worthy landmark", "photo": "https://upload.wikimedia.org/wikipedia/commons/thumb/d/d1/Cerro_Chachahuate.jpg/1280px-Cerro_Chachahuate.jpg"}, {"id": "hungary-hungarian-parliament-building-budapest", "name": "Hungarian Parliament Building, Budapest", "country": "Hungary", "lat": 47.76943, "lng": 19.13622, "category": "Civic / cultural landmark", "photo": "https://upload.wikimedia.org/wikipedia/commons/thumb/9/99/Hungarian_Parliament_Building_from_across_the_Danube%2C_2025-01-11.jpg/1280px-Hungarian_Parliament_Building_from_across_the_Danube%2C_2025-01-11.jpg"}, {"id": "hungary-buda-castle", "name": "Buda Castle", "country": "Hungary", "lat": 47.76943, "lng": 19.13622, "category": "Architectural landmark", "photo": "https://upload.wikimedia.org/wikipedia/commons/thumb/5/5c/Budav%C3%A1ri_Palota%2C_ABCDEF_%C3%A9p%C3%BClet.jpg/1280px-Budav%C3%A1ri_Palota%2C_ABCDEF_%C3%A9p%C3%BClet.jpg"}, {"id": "hungary-fishermans-bastion", "name": "Fisherman’s Bastion", "country": "Hungary", "lat": 47.76943, "lng": 19.13622, "category": "Visit-worthy landmark", "photo": "https://upload.wikimedia.org/wikipedia/commons/thumb/6/6a/Hal%C3%A1szb%C3%A1stya_2017.jpg/1280px-Hal%C3%A1szb%C3%A1stya_2017.jpg"}, {"id": "iceland-hallgrimskirkja-reykjavik", "name": "Hallgrímskirkja, Reykjavík", "country": "Iceland", "lat": 64.22721, "lng": -20.51839, "category": "Visit-worthy landmark", "photo": "https://upload.wikimedia.org/wikipedia/commons/thumb/8/8b/Hallgrimskirkja_mai_2026.jpg/1280px-Hallgrimskirkja_mai_2026.jpg"}, {"id": "iceland-thingvellir-national-park", "name": "Thingvellir National Park", "country": "Iceland", "lat": 64.25381, "lng": -21.03725, "category": "Natural landmark", "photo": "https://upload.wikimedia.org/wikipedia/commons/thumb/8/83/%C3%9Eingvellir_from_the_information_centre.JPG/1280px-%C3%9Eingvellir_from_the_information_centre.JPG"}, {"id": "iceland-sun-voyager-reykjavik", "name": "Sun Voyager, Reykjavík", "country": "Iceland", "lat": 64.22721, "lng": -20.51839, "category": "Visit-worthy landmark", "photo": "https://upload.wikimedia.org/wikipedia/en/thumb/7/71/Sun_Voyager.jpeg/1280px-Sun_Voyager.jpeg"}, {"id": "indonesia-borobudur-temple", "name": "Borobudur Temple", "country": "Indonesia", "lat": -7.60778, "lng": 110.20361, "category": "Religious monument", "photo": "https://upload.wikimedia.org/wikipedia/commons/thumb/2/25/Pradaksina.jpg/1280px-Pradaksina.jpg"}, {"id": "indonesia-prambanan-temple", "name": "Prambanan Temple", "country": "Indonesia", "lat": -7.75222, "lng": 110.49167, "category": "Religious monument", "photo": "https://upload.wikimedia.org/wikipedia/commons/thumb/0/0b/Prambanan_Temple_Yogyakarta_Indonesia.jpg/1280px-Prambanan_Temple_Yogyakarta_Indonesia.jpg"}, {"id": "indonesia-tanah-lot-temple-bali", "name": "Tanah Lot Temple, Bali", "country": "Indonesia", "lat": -7.66963, "lng": 110.36501, "category": "Religious monument", "photo": "https://upload.wikimedia.org/wikipedia/commons/thumb/8/8d/TanahLot_2014.JPG/1280px-TanahLot_2014.JPG"}, {"id": "iran-persepolis", "name": "Persepolis", "country": "Iran", "lat": 29.93444, "lng": 52.89028, "category": "Visit-worthy landmark", "photo": "https://upload.wikimedia.org/wikipedia/commons/thumb/7/7e/Persepolis_east_side_at_spring.jpg/500px-Persepolis_east_side_at_spring.jpg"}, {"id": "iran-nasir-al-mulk-mosque-shiraz", "name": "Nasir al-Mulk Mosque, Shiraz", "country": "Iran", "lat": 30.6327, "lng": 52.12338, "category": "Religious monument", "photo": "https://upload.wikimedia.org/wikipedia/commons/thumb/4/4b/Nasir_ol_Molk_Mosque_%2831233739431%29.jpg/1280px-Nasir_ol_Molk_Mosque_%2831233739431%29.jpg"}, {"id": "iran-naqsh-e-jahan-square-isfahan", "name": "Naqsh-e Jahan Square, Isfahan", "country": "Iran", "lat": 30.6327, "lng": 52.12338, "category": "Civic / cultural landmark", "photo": "https://upload.wikimedia.org/wikipedia/commons/thumb/e/ee/Naqsh-i_Jahan_Square%2C_Jan._2018.jpg/1280px-Naqsh-i_Jahan_Square%2C_Jan._2018.jpg"}, {"id": "iraq-erbil-citadel", "name": "Erbil Citadel", "country": "Iraq", "lat": 36.19111, "lng": 44.00917, "category": "Architectural landmark", "photo": "https://upload.wikimedia.org/wikipedia/commons/thumb/3/34/Hawler_Castle.jpg/1280px-Hawler_Castle.jpg"}, {"id": "iraq-ziggurat-of-ur", "name": "Ziggurat of Ur", "country": "Iraq", "lat": 35.99329, "lng": 43.7069, "category": "Visit-worthy landmark", "photo": "https://upload.wikimedia.org/wikipedia/commons/thumb/6/6b/Ziggarat_of_Ur_001.jpg/1280px-Ziggarat_of_Ur_001.jpg"}, {"id": "iraq-al-mustansiriya-school-baghdad", "name": "Al-Mustansiriya School, Baghdad", "country": "Iraq", "lat": 35.99329, "lng": 43.7069, "category": "Visit-worthy landmark", "photo": "https://upload.wikimedia.org/wikipedia/commons/thumb/6/67/Al-Mustansriah_School_-_Main_door.jpg/1280px-Al-Mustansriah_School_-_Main_door.jpg"}, {"id": "ireland-newgrange-bru-na-boinne", "name": "Newgrange / Brú na Bóinne", "country": "Ireland", "lat": 52.82954, "lng": -8.31954, "category": "Visit-worthy landmark", "photo": "https://upload.wikimedia.org/wikipedia/commons/thumb/8/88/Newgrange_-_538040135.jpg/1280px-Newgrange_-_538040135.jpg"}, {"id": "ireland-rock-of-cashel", "name": "Rock of Cashel", "country": "Ireland", "lat": 52.82954, "lng": -8.31954, "category": "Natural landmark", "photo": "https://upload.wikimedia.org/wikipedia/commons/1/13/Rock_of_Cashel_%2849163525453%29.jpg"}, {"id": "ireland-dublin-castle", "name": "Dublin Castle", "country": "Ireland", "lat": 52.82954, "lng": -8.31954, "category": "Architectural landmark", "photo": "https://upload.wikimedia.org/wikipedia/commons/thumb/a/a3/The_Dubhlinn_Gardens_Dublin_Castle_01.JPG/1280px-The_Dubhlinn_Gardens_Dublin_Castle_01.JPG"}, {"id": "israel-masada", "name": "Masada", "country": "Israel", "lat": 31.3135, "lng": 35.35275, "category": "Visit-worthy landmark", "photo": "https://upload.wikimedia.org/wikipedia/commons/thumb/1/14/Israel-2013-Aerial_21-Masada.jpg/1280px-Israel-2013-Aerial_21-Masada.jpg"}, {"id": "israel-old-city-of-acre", "name": "Old City of Acre", "country": "Israel", "lat": 32.92833, "lng": 35.08389, "category": "Visit-worthy landmark", "photo": "https://upload.wikimedia.org/wikipedia/commons/thumb/f/f3/Aerial_view_of_Acre_1.jpg/1280px-Aerial_view_of_Acre_1.jpg"}, {"id": "israel-dome-of-the-rock-temple-mount-jerusalem", "name": "Dome of the Rock / Temple Mount, Jerusalem", "country": "Israel", "lat": 32.0624, "lng": 35.21619, "category": "Natural landmark", "photo": "https://upload.wikimedia.org/wikipedia/commons/thumb/8/8b/Jerusalem-2013%282%29-Temple_Mount-Dome_of_the_Rock_%28SE_exposure%29.jpg/1280px-Jerusalem-2013%282%29-Temple_Mount-Dome_of_the_Rock_%28SE_exposure%29.jpg"}, {"id": "ivory-coast-basilica-of-our-lady-of-peace-yamoussoukro", "name": "Basilica of Our Lady of Peace, Yamoussoukro", "country": "Ivory Coast", "lat": 6.64861, "lng": -2.64343, "category": "Religious monument", "photo": "https://upload.wikimedia.org/wikipedia/commons/thumb/e/e2/Yamoussoukro_panorama.jpg/1280px-Yamoussoukro_panorama.jpg"}, {"id": "ivory-coast-grand-bassam-historic-town", "name": "Grand-Bassam Historic Town", "country": "Ivory Coast", "lat": 6.64861, "lng": -2.64343, "category": "Visit-worthy landmark", "photo": "https://upload.wikimedia.org/wikipedia/commons/7/7d/800px-Grand-Bassam.jpg"}, {"id": "ivory-coast-st-pauls-cathedral-abidjan", "name": "St. Paul’s Cathedral, Abidjan", "country": "Ivory Coast", "lat": 6.64861, "lng": -2.64343, "category": "Religious monument", "photo": "https://upload.wikimedia.org/wikipedia/commons/thumb/e/ef/Visite_du_mus%C3%A9e_de_civilisation_de_C%C3%B4te_d%27Ivoire_08.jpg/1280px-Visite_du_mus%C3%A9e_de_civilisation_de_C%C3%B4te_d%27Ivoire_08.jpg"}, {"id": "jamaica-devon-house-kingston", "name": "Devon House, Kingston", "country": "Jamaica", "lat": 18.26167, "lng": -77.505, "category": "Visit-worthy landmark", "photo": "https://upload.wikimedia.org/wikipedia/commons/6/61/Mandeville-courthouse.jpg"}, {"id": "jamaica-bob-marley-museum-kingston", "name": "Bob Marley Museum, Kingston", "country": "Jamaica", "lat": 18.26167, "lng": -77.505, "category": "Civic / cultural landmark", "photo": "https://upload.wikimedia.org/wikipedia/commons/8/81/56hoperd.JPG"}, {"id": "jamaica-port-royal-historic-district", "name": "Port Royal Historic District", "country": "Jamaica", "lat": 18.26167, "lng": -77.505, "category": "Visit-worthy landmark", "photo": "https://upload.wikimedia.org/wikipedia/commons/thumb/6/6f/St._Peter%27s_Episcopal_Church_Port_Royal_HD_Oct_12.JPG/3840px-St._Peter%27s_Episcopal_Church_Port_Royal_HD_Oct_12.JPG"}, {"id": "jordan-petra", "name": "Petra", "country": "Jordan", "lat": 30.33056, "lng": 35.44333, "category": "Visit-worthy landmark", "photo": "https://upload.wikimedia.org/wikipedia/commons/thumb/e/e8/Al_Deir_Petra.JPG/1280px-Al_Deir_Petra.JPG"}, {"id": "jordan-wadi-rum", "name": "Wadi Rum", "country": "Jordan", "lat": 30.72204, "lng": 35.68329, "category": "Visit-worthy landmark", "photo": "https://upload.wikimedia.org/wikipedia/commons/thumb/5/56/Mountain_in_Wadi_Rum%2C_Jordan.jpg/1280px-Mountain_in_Wadi_Rum%2C_Jordan.jpg"}, {"id": "jordan-jerash-roman-ruins", "name": "Jerash Roman Ruins", "country": "Jordan", "lat": 30.72204, "lng": 35.68329, "category": "Archaeological site", "photo": "https://upload.wikimedia.org/wikipedia/commons/thumb/5/51/Oval_Plaza_%28Forum_Romanum%2C_Gerasa_-_Jerash%2C_Jordan%29_-_%D8%B3%D8%A7%D8%AD%D8%A9_%D8%A7%D9%84%D9%86%D8%AF%D9%88%D8%A9%2C_%D8%AC%D8%B1%D8%B4.jpg/1280px-Oval_Plaza_%28Forum_Romanum%2C_Gerasa_-_Jerash%2C_Jordan%29_-_%D8%B3%D8%A7%D8%AD%D8%A9_%D8%A7%D9%84%D9%86%D8%AF%D9%88%D8%A9%2C_%D8%AC%D8%B1%D8%B4.jpg"}, {"id": "kazakhstan-mausoleum-of-khoja-ahmed-yasawi", "name": "Mausoleum of Khoja Ahmed Yasawi", "country": "Kazakhstan", "lat": 43.29306, "lng": 68.27444, "category": "Visit-worthy landmark", "photo": "https://upload.wikimedia.org/wikipedia/commons/thumb/c/c2/%D0%9C%D0%B0%D1%83%D0%B7%D0%BE%D0%BB%D0%B5%D1%98_%D0%A5%D0%BE%D0%B4%D0%B6%D0%B5_%D0%90%D1%85%D0%BC%D0%B5%D0%B4%D0%B0_%D0%88%D0%B0%D1%81%D0%B0%D0%B2%D0%B8%D1%98%D0%B0_%28%D0%B3%D1%80%D0%B0%D0%B4_%D0%A2%D1%83%D1%80%D0%BA%D0%B5%D1%81%D1%82%D0%B0%D0%BD%2C_%D0%9A%D0%B0%D0%B7%D0%B0%D1%85%D1%81%D1%82%D0%B0%D0%BD%29.jpg/1280px-%D0%9C%D0%B0%D1%83%D0%B7%D0%BE%D0%BB%D0%B5%D1%98_%D0%A5%D0%BE%D0%B4%D0%B6%D0%B5_%D0%90%D1%85%D0%BC%D0%B5%D0%B4%D0%B0_%D0%88%D0%B0%D1%81%D0%B0%D0%B2%D0%B8%D1%98%D0%B0_%28%D0%B3%D1%80%D0%B0%D0%B4_%D0%A2%D1%83%D1%80%D0%BA%D0%B5%D1%81%D1%82%D0%B0%D0%BD%2C_%D0%9A%D0%B0%D0%B7%D0%B0%D1%85%D1%81%D1%82%D0%B0%D0%BD%29.jpg"}, {"id": "kazakhstan-bayterek-tower-astana", "name": "Bayterek Tower, Astana", "country": "Kazakhstan", "lat": 42.03701, "lng": 75.36234, "category": "Natural landmark", "photo": "https://upload.wikimedia.org/wikipedia/en/thumb/6/66/Central_Downtown_Astana_2.jpg/1280px-Central_Downtown_Astana_2.jpg"}, {"id": "kazakhstan-tamgaly-petroglyphs", "name": "Tamgaly Petroglyphs", "country": "Kazakhstan", "lat": 42.03701, "lng": 75.36234, "category": "Archaeological site", "photo": "https://upload.wikimedia.org/wikipedia/commons/c/c1/Tanbaly.jpg"}, {"id": "kenya-fort-jesus-mombasa", "name": "Fort Jesus, Mombasa", "country": "Kenya", "lat": -4.06278, "lng": 39.67944, "category": "Architectural landmark", "photo": "https://upload.wikimedia.org/wikipedia/commons/4/41/Fort_Jesus_at_the_Mombasa_Island.jpg"}, {"id": "kenya-lamu-old-town", "name": "Lamu Old Town", "country": "Kenya", "lat": -2.28444, "lng": 40.8525, "category": "Visit-worthy landmark", "photo": "https://upload.wikimedia.org/wikipedia/commons/2/29/Lamu_Old_Town.jpg"}, {"id": "kenya-giraffe-centre-nairobi-landmark", "name": "Giraffe Centre / Nairobi landmark", "country": "Kenya", "lat": -3.2017, "lng": 40.24116, "category": "Visit-worthy landmark", "photo": "https://upload.wikimedia.org/wikipedia/commons/0/07/Kutchprant.jpg"}, {"id": "kiribati-phoenix-islands-protected-area", "name": "Phoenix Islands Protected Area", "country": "Kiribati", "lat": -3.64972, "lng": -172.8575, "category": "Natural landmark", "photo": "https://upload.wikimedia.org/wikipedia/commons/thumb/5/52/Rotjan_-_Enderbury_Day_1_-_2nd_half_%2862%29.JPG/1280px-Rotjan_-_Enderbury_Day_1_-_2nd_half_%2862%29.JPG"}, {"id": "kiribati-parliament-house-south-tarawa", "name": "Parliament House, South Tarawa", "country": "Kiribati", "lat": -2.14857, "lng": -70.38047, "category": "Civic / cultural landmark", "photo": "https://upload.wikimedia.org/wikipedia/commons/thumb/b/b5/South_Tarawa_from_the_air.jpg/1280px-South_Tarawa_from_the_air.jpg"}, {"id": "kiribati-japanese-wwii-guns-betio", "name": "Japanese WWII Guns, Betio", "country": "Kiribati", "lat": -2.14857, "lng": -70.38047, "category": "Visit-worthy landmark", "photo": "https://upload.wikimedia.org/wikipedia/commons/thumb/e/e7/Marines_Advance_on_Japanese_Pill_Boxes%2C_Tarawa%2C_November_1943_%2810962107133%29.jpg/1280px-Marines_Advance_on_Japanese_Pill_Boxes%2C_Tarawa%2C_November_1943_%2810962107133%29.jpg"}, {"id": "kuwait-kuwait-towers", "name": "Kuwait Towers", "country": "Kuwait", "lat": 29.51167, "lng": 45.745, "category": "Architectural landmark", "photo": "https://upload.wikimedia.org/wikipedia/commons/thumb/a/aa/Flag_of_Kuwait.svg/1280px-Flag_of_Kuwait.svg.png"}, {"id": "kuwait-grand-mosque-of-kuwait", "name": "Grand Mosque of Kuwait", "country": "Kuwait", "lat": 29.51167, "lng": 45.745, "category": "Religious monument", "photo": "https://upload.wikimedia.org/wikipedia/commons/thumb/6/6e/Kuwait_City_Grand_Mosque_Exterior_South_Facade_5.jpg/1280px-Kuwait_City_Grand_Mosque_Exterior_South_Facade_5.jpg"}, {"id": "kuwait-seif-palace", "name": "Seif Palace", "country": "Kuwait", "lat": 29.51167, "lng": 45.745, "category": "Architectural landmark", "photo": "https://upload.wikimedia.org/wikipedia/commons/b/b7/Seifpalace.jpg"}, {"id": "kyrgyzstan-sulaiman-too-sacred-mountain", "name": "Sulaiman-Too Sacred Mountain", "country": "Kyrgyzstan", "lat": 40.53111, "lng": 72.78278, "category": "Natural landmark", "photo": "https://upload.wikimedia.org/wikipedia/commons/thumb/6/6b/Osh_03-2016_img06_Sulayman_Mountain.jpg/1280px-Osh_03-2016_img06_Sulayman_Mountain.jpg"}, {"id": "kyrgyzstan-burana-tower", "name": "Burana Tower", "country": "Kyrgyzstan", "lat": 39.68181, "lng": 78.46007, "category": "Architectural landmark", "photo": "https://upload.wikimedia.org/wikipedia/commons/thumb/1/12/Burana_Tower%2C_Kyrgyzstan.jpg/1280px-Burana_Tower%2C_Kyrgyzstan.jpg"}, {"id": "kyrgyzstan-ala-too-square-bishkek", "name": "Ala-Too Square, Bishkek", "country": "Kyrgyzstan", "lat": 39.68181, "lng": 78.46007, "category": "Civic / cultural landmark", "photo": "https://upload.wikimedia.org/wikipedia/commons/thumb/5/53/Bishkek_P9170507_014_%2840103613941%29.jpg/1280px-Bishkek_P9170507_014_%2840103613941%29.jpg"}, {"id": "laos-pha-that-luang-vientiane", "name": "Pha That Luang, Vientiane", "country": "Laos", "lat": 17.39292, "lng": 104.01675, "category": "Visit-worthy landmark", "photo": "https://upload.wikimedia.org/wikipedia/commons/thumb/4/49/Pha_That_Luang%2C_July_2023.jpg/1280px-Pha_That_Luang%2C_July_2023.jpg"}, {"id": "laos-town-of-luang-prabang", "name": "Town of Luang Prabang", "country": "Laos", "lat": 19.88889, "lng": 102.13333, "category": "Visit-worthy landmark", "photo": "https://upload.wikimedia.org/wikipedia/commons/thumb/f/f7/Phou_si_Luang_Prabang_Laos_%E3%83%97%E3%83%BC%E3%82%B7%E3%83%BC%E3%81%AE%E4%B8%98_%E3%83%A9%E3%82%AA%E3%82%B9%E3%83%BB%E3%83%AB%E3%82%A2%E3%83%B3%E3%83%97%E3%83%A9%E3%83%90%E3%83%BC%E3%83%B3_DSCF6777.jpg/1280px-Phou_si_Luang_Prabang_Laos_%E3%83%97%E3%83%BC%E3%82%B7%E3%83%BC%E3%81%AE%E4%B8%98_%E3%83%A9%E3%82%AA%E3%82%B9%E3%83%BB%E3%83%AB%E3%82%A2%E3%83%B3%E3%83%97%E3%83%A9%E3%83%90%E3%83%BC%E3%83%B3_DSCF6777.jpg"}, {"id": "laos-vat-phou", "name": "Vat Phou", "country": "Laos", "lat": 14.84833, "lng": 105.82222, "category": "Visit-worthy landmark", "photo": "https://upload.wikimedia.org/wikipedia/commons/thumb/1/1e/Champasak%2C_Laos%2C_Wat_Poo_03.jpg/1280px-Champasak%2C_Laos%2C_Wat_Poo_03.jpg"}, {"id": "latvia-riga-old-town", "name": "Riga Old Town", "country": "Latvia", "lat": 57.67898, "lng": 25.16148, "category": "Visit-worthy landmark", "photo": "https://upload.wikimedia.org/wikipedia/commons/thumb/9/99/Greater_Coat_of_Arms_of_Riga_-_for_display.svg/1280px-Greater_Coat_of_Arms_of_Riga_-_for_display.svg.png"}, {"id": "latvia-freedom-monument-riga", "name": "Freedom Monument, Riga", "country": "Latvia", "lat": 57.67898, "lng": 25.16148, "category": "Civic / cultural landmark", "photo": "https://upload.wikimedia.org/wikipedia/commons/thumb/7/76/0873_LVA_Riga_freedom_monument_SE.jpg/1280px-0873_LVA_Riga_freedom_monument_SE.jpg"}, {"id": "latvia-house-of-the-blackheads-riga", "name": "House of the Blackheads, Riga", "country": "Latvia", "lat": 57.67898, "lng": 25.16148, "category": "Visit-worthy landmark", "photo": "https://upload.wikimedia.org/wikipedia/commons/thumb/0/03/House_of_Blackheads_at_Dusk_3%2C_Riga%2C_Latvia_-_Diliff.jpg/1280px-House_of_Blackheads_at_Dusk_3%2C_Riga%2C_Latvia_-_Diliff.jpg"}, {"id": "lebanon-baalbek-roman-temples", "name": "Baalbek Roman Temples", "country": "Lebanon", "lat": 33.93538, "lng": 35.62219, "category": "Religious monument", "photo": "https://upload.wikimedia.org/wikipedia/commons/b/b4/Baalbek_Baccustempel.jpg"}, {"id": "lebanon-byblos-castle-and-old-city", "name": "Byblos Castle and Old City", "country": "Lebanon", "lat": 34.11917, "lng": 35.6475, "category": "Architectural landmark", "photo": "https://upload.wikimedia.org/wikipedia/commons/thumb/3/3c/Byblos_Libanon_2003.JPG/1280px-Byblos_Libanon_2003.JPG"}, {"id": "lebanon-jeita-grotto", "name": "Jeita Grotto", "country": "Lebanon", "lat": 33.93538, "lng": 35.62219, "category": "Natural landmark", "photo": "https://upload.wikimedia.org/wikipedia/commons/0/09/Upper_Jeita_Grotto.jpg"}, {"id": "lesotho-maloti-drakensberg-park", "name": "Maloti-Drakensberg Park", "country": "Lesotho", "lat": -29.76528, "lng": 29.12306, "category": "Natural landmark", "photo": "https://upload.wikimedia.org/wikipedia/commons/thumb/3/33/Tugela_Gorge_-_Royal_Natal_National_Park.jpg/1280px-Tugela_Gorge_-_Royal_Natal_National_Park.jpg"}, {"id": "lesotho-thaba-bosiu", "name": "Thaba Bosiu", "country": "Lesotho", "lat": -29.68668, "lng": 28.93919, "category": "Visit-worthy landmark", "photo": "https://upload.wikimedia.org/wikipedia/commons/6/67/685_Thaba_Bosiu.jpg"}, {"id": "lesotho-maseru-basotho-hat-building", "name": "Maseru Basotho Hat Building", "country": "Lesotho", "lat": -29.68668, "lng": 28.93919, "category": "Civic / cultural landmark", "photo": "https://upload.wikimedia.org/wikipedia/commons/thumb/2/29/Maseru_City_CBD.jpg/1280px-Maseru_City_CBD.jpg"}, {"id": "liberia-providence-island-monrovia", "name": "Providence Island, Monrovia", "country": "Liberia", "lat": 6.51167, "lng": -9.505, "category": "Natural landmark", "photo": "https://upload.wikimedia.org/wikipedia/commons/thumb/2/25/Liberia%2C_Africa_-_panoramio_%28256%29.jpg/1280px-Liberia%2C_Africa_-_panoramio_%28256%29.jpg"}, {"id": "liberia-ducor-hotel-ruins-monrovia", "name": "Ducor Hotel ruins, Monrovia", "country": "Liberia", "lat": 6.51167, "lng": -9.505, "category": "Archaeological site", "photo": "https://upload.wikimedia.org/wikipedia/commons/thumb/1/19/The_swimming_pool_area_of_the_former_Ducor_Palace_Hotel_in_Monrovia%2C_Liberia.jpg/1280px-The_swimming_pool_area_of_the_former_Ducor_Palace_Hotel_in_Monrovia%2C_Liberia.jpg"}, {"id": "liberia-centennial-pavilion-monrovia", "name": "Centennial Pavilion, Monrovia", "country": "Liberia", "lat": 6.51167, "lng": -9.505, "category": "Visit-worthy landmark", "photo": "https://upload.wikimedia.org/wikipedia/commons/thumb/8/81/ASC_Leiden_-_F._van_der_Kraaij_Collection_-_05_-_045_-_A_close_up_of_the_crossing_of_Ashmun_street_and_Buchanan_street_-_Monrovia%2C_Montserrado%2C_Liberia%2C_1975.tif/lossy-page1-1280px-thumbnail.tif.jpg"}, {"id": "libya-leptis-magna", "name": "Leptis Magna", "country": "Libya", "lat": 30.92794, "lng": 11.77309, "category": "Visit-worthy landmark", "photo": "https://upload.wikimedia.org/wikipedia/commons/thumb/3/33/Leptis_Magna_%2829%29_%288288918733%29.jpg/1280px-Leptis_Magna_%2829%29_%288288918733%29.jpg"}, {"id": "libya-sabratha-archaeological-site", "name": "Sabratha Archaeological Site", "country": "Libya", "lat": 30.92794, "lng": 11.77309, "category": "Archaeological site", "photo": "https://upload.wikimedia.org/wikipedia/commons/thumb/a/a6/Theatre_of_Sabratha%2C_Libya.jpg/1280px-Theatre_of_Sabratha%2C_Libya.jpg"}, {"id": "libya-old-town-of-ghadames", "name": "Old Town of Ghadames", "country": "Libya", "lat": 30.13333, "lng": 9.5, "category": "Visit-worthy landmark", "photo": "https://upload.wikimedia.org/wikipedia/commons/d/d2/Ghadames_Mosque.jpg"}, {"id": "liechtenstein-vaduz-castle", "name": "Vaduz Castle", "country": "Liechtenstein", "lat": 47.2913, "lng": 9.52, "category": "Architectural landmark", "photo": "https://upload.wikimedia.org/wikipedia/commons/thumb/2/28/Liechtenstein_asv2022-10_img22_Vaduz_Schloss.jpg/1280px-Liechtenstein_asv2022-10_img22_Vaduz_Schloss.jpg"}, {"id": "liechtenstein-gutenberg-castle", "name": "Gutenberg Castle", "country": "Liechtenstein", "lat": 47.2913, "lng": 9.52, "category": "Architectural landmark", "photo": "https://upload.wikimedia.org/wikipedia/commons/thumb/f/fd/Liechtenstein_asv2022-10_img25_Balzers_Burg_Gutenberg.jpg/1280px-Liechtenstein_asv2022-10_img25_Balzers_Burg_Gutenberg.jpg"}, {"id": "liechtenstein-liechtenstein-national-museum", "name": "Liechtenstein National Museum", "country": "Liechtenstein", "lat": 47.30167, "lng": 9.51333, "category": "Civic / cultural landmark", "photo": "https://upload.wikimedia.org/wikipedia/commons/thumb/3/3d/Liechtensteinisches_Landesmuseum_logo.svg/1280px-Liechtensteinisches_Landesmuseum_logo.svg.png"}, {"id": "lithuania-vilnius-old-town", "name": "Vilnius Old Town", "country": "Lithuania", "lat": 56.33968, "lng": 24.19774, "category": "Visit-worthy landmark", "photo": "https://upload.wikimedia.org/wikipedia/commons/thumb/2/2a/Vilnius_old_town_by_Augustas_Didzgalvis.jpg/1280px-Vilnius_old_town_by_Augustas_Didzgalvis.jpg"}, {"id": "lithuania-trakai-island-castle", "name": "Trakai Island Castle", "country": "Lithuania", "lat": 56.33968, "lng": 24.19774, "category": "Natural landmark", "photo": "https://upload.wikimedia.org/wikipedia/commons/thumb/a/a8/Trakai_castle_2016.jpg/1280px-Trakai_castle_2016.jpg"}, {"id": "lithuania-hill-of-crosses", "name": "Hill of Crosses", "country": "Lithuania", "lat": 56.33968, "lng": 24.19774, "category": "Visit-worthy landmark", "photo": "https://upload.wikimedia.org/wikipedia/commons/thumb/8/8c/Kry%C5%BEi%C5%B3_kalnas_%28G%C3%B3ra_Krzy%C5%BCy%29.JPG/1280px-Kry%C5%BEi%C5%B3_kalnas_%28G%C3%B3ra_Krzy%C5%BCy%29.JPG"}, {"id": "luxembourg-luxembourg-old-quarters-and-fortifications", "name": "Luxembourg Old Quarters and Fortifications", "country": "Luxembourg", "lat": 49.70333, "lng": 6.15722, "category": "Architectural landmark", "photo": "https://upload.wikimedia.org/wikipedia/commons/thumb/e/eb/Luxembourg_City_Night_Wikimedia_Commons.jpg/1280px-Luxembourg_City_Night_Wikimedia_Commons.jpg"}, {"id": "luxembourg-bock-casemates", "name": "Bock Casemates", "country": "Luxembourg", "lat": 49.70333, "lng": 6.15722, "category": "Visit-worthy landmark", "photo": "https://upload.wikimedia.org/wikipedia/commons/5/57/Selig_Luxembourg_from_Paffendall.jpg"}, {"id": "luxembourg-grand-ducal-palace", "name": "Grand Ducal Palace", "country": "Luxembourg", "lat": 49.70333, "lng": 6.15722, "category": "Architectural landmark", "photo": "https://upload.wikimedia.org/wikipedia/commons/thumb/6/60/Luxemburg_BW_2016-09-15_11-46-49_stitch.jpg/1280px-Luxemburg_BW_2016-09-15_11-46-49_stitch.jpg"}, {"id": "madagascar-avenue-of-the-baobabs", "name": "Avenue of the Baobabs", "country": "Madagascar", "lat": -18.55539, "lng": 46.28773, "category": "Visit-worthy landmark", "photo": "https://upload.wikimedia.org/wikipedia/commons/thumb/3/38/Adansonia_grandidieri_Pat_Hooper.jpg/1280px-Adansonia_grandidieri_Pat_Hooper.jpg"}, {"id": "madagascar-royal-hill-of-ambohimanga", "name": "Royal Hill of Ambohimanga", "country": "Madagascar", "lat": -18.75917, "lng": 47.56278, "category": "Visit-worthy landmark", "photo": "https://upload.wikimedia.org/wikipedia/commons/thumb/6/6d/View_of_Ambohimanga_sacred_hill_Madagascar.JPG/1280px-View_of_Ambohimanga_sacred_hill_Madagascar.JPG"}, {"id": "madagascar-tsingy-de-bemaraha", "name": "Tsingy de Bemaraha", "country": "Madagascar", "lat": -18.66667, "lng": 44.75, "category": "Visit-worthy landmark", "photo": "https://upload.wikimedia.org/wikipedia/commons/e/ec/Tsingy_de_Bemaraha.jpg"}, {"id": "malawi-chongoni-rock-art-area", "name": "Chongoni Rock-Art Area", "country": "Malawi", "lat": -14.29333, "lng": 34.27917, "category": "Natural landmark", "photo": "https://upload.wikimedia.org/wikipedia/commons/2/2a/Chongoni_rock_art.jpg"}, {"id": "malawi-lake-malawi-national-park", "name": "Lake Malawi National Park", "country": "Malawi", "lat": -14.03333, "lng": 34.88333, "category": "Natural landmark", "photo": "https://upload.wikimedia.org/wikipedia/commons/thumb/0/05/Lake_Malawi_seen_from_orbit.jpg/1280px-Lake_Malawi_seen_from_orbit.jpg"}, {"id": "malawi-kamuzu-mausoleum-lilongwe", "name": "Kamuzu Mausoleum, Lilongwe", "country": "Malawi", "lat": -14.13784, "lng": 34.56083, "category": "Visit-worthy landmark", "photo": "https://upload.wikimedia.org/wikipedia/commons/thumb/1/18/Kamuzu_Mausoleum.JPG/1280px-Kamuzu_Mausoleum.JPG"}, {"id": "malaysia-petronas-twin-towers-kuala-lumpur", "name": "Petronas Twin Towers, Kuala Lumpur", "country": "Malaysia", "lat": 5.57977, "lng": 105.93939, "category": "Architectural landmark", "photo": "https://upload.wikimedia.org/wikipedia/commons/thumb/b/bc/Petronas_Towers_Logo.svg/1280px-Petronas_Towers_Logo.svg.png"}, {"id": "malaysia-batu-caves", "name": "Batu Caves", "country": "Malaysia", "lat": 5.57977, "lng": 105.93939, "category": "Natural landmark", "photo": "https://upload.wikimedia.org/wikipedia/commons/thumb/8/8f/Batu_Caves_stairs_2022-05.jpg/1280px-Batu_Caves_stairs_2022-05.jpg"}, {"id": "malaysia-george-town-penang", "name": "George Town, Penang", "country": "Malaysia", "lat": 5.57977, "lng": 105.93939, "category": "Visit-worthy landmark", "photo": "https://upload.wikimedia.org/wikipedia/commons/thumb/6/65/Skyline_of_George_Town%2C_Penang_at_night_Nov2024-29-17.jpg/1280px-Skyline_of_George_Town%2C_Penang_at_night_Nov2024-29-17.jpg"}, {"id": "maldives-hukuru-miskiy-old-friday-mosque-male", "name": "Hukuru Miskiy / Old Friday Mosque, Malé", "country": "Maldives", "lat": 3.26167, "lng": 72.995, "category": "Religious monument", "photo": "https://upload.wikimedia.org/wikipedia/commons/thumb/5/5b/Male%27_Hukuru_Miskiy_1.jpg/1280px-Male%27_Hukuru_Miskiy_1.jpg"}, {"id": "maldives-tsunami-monument-male", "name": "Tsunami Monument, Malé", "country": "Maldives", "lat": 3.26167, "lng": 72.995, "category": "Civic / cultural landmark", "photo": "https://upload.wikimedia.org/wikipedia/commons/d/dd/1598_Middleburg_Bertius_Maldives_map_latin.jpg"}, {"id": "maldives-national-museum-male", "name": "National Museum, Malé", "country": "Maldives", "lat": 3.26167, "lng": 72.995, "category": "Civic / cultural landmark", "photo": "https://upload.wikimedia.org/wikipedia/commons/thumb/8/83/Mal%C3%A9.jpg/1280px-Mal%C3%A9.jpg"}, {"id": "mali-djinguereber-mosque-timbuktu", "name": "Djinguereber Mosque, Timbuktu", "country": "Mali", "lat": 16.77333, "lng": -2.99944, "category": "Religious monument", "photo": "https://upload.wikimedia.org/wikipedia/commons/d/dd/Djingareiber_cour.jpg"}, {"id": "mali-great-mosque-of-djenne", "name": "Great Mosque of Djenné", "country": "Mali", "lat": 16.43434, "lng": -1.63433, "category": "Religious monument", "photo": "https://upload.wikimedia.org/wikipedia/commons/thumb/7/75/Djenne_great_mud_mosque.jpg/1280px-Djenne_great_mud_mosque.jpg"}, {"id": "mali-tomb-of-askia", "name": "Tomb of Askia", "country": "Mali", "lat": 16.2898, "lng": -0.04456, "category": "Archaeological site", "photo": "https://upload.wikimedia.org/wikipedia/commons/a/ab/Askia.jpg"}, {"id": "malta-city-of-valletta", "name": "City of Valletta", "country": "Malta", "lat": 35.90056, "lng": 14.51444, "category": "Visit-worthy landmark", "photo": "https://upload.wikimedia.org/wikipedia/commons/thumb/b/b7/St_Sebastian_Curtain_%28cropped%29.jpg/1280px-St_Sebastian_Curtain_%28cropped%29.jpg"}, {"id": "malta-al-saflieni-hypogeum", "name": "Ħal Saflieni Hypogeum", "country": "Malta", "lat": 35.97099, "lng": 14.39623, "category": "Visit-worthy landmark", "photo": "https://upload.wikimedia.org/wikipedia/commons/thumb/0/06/Photo_Ellis_Hal_Salflieni.jpg/1280px-Photo_Ellis_Hal_Salflieni.jpg"}, {"id": "malta-megalithic-temples-of-malta", "name": "Megalithic Temples of Malta", "country": "Malta", "lat": 36.04908, "lng": 14.26947, "category": "Religious monument", "photo": "https://upload.wikimedia.org/wikipedia/commons/thumb/b/b8/Ggantija_Temples%2C_Xaghra%2C_Gozo.jpg/1280px-Ggantija_Temples%2C_Xaghra%2C_Gozo.jpg"}, {"id": "marshall-islands-bikini-atoll-nuclear-test-site", "name": "Bikini Atoll Nuclear Test Site", "country": "Marshall Islands", "lat": 11.6, "lng": 165.38056, "category": "Visit-worthy landmark", "photo": "https://upload.wikimedia.org/wikipedia/commons/8/84/Operation_Crossroads_-_Able_001.jpg"}, {"id": "marshall-islands-majuro-peace-park", "name": "Majuro Peace Park", "country": "Marshall Islands", "lat": 10.82963, "lng": 166.15743, "category": "Natural landmark", "photo": "https://upload.wikimedia.org/wikipedia/commons/thumb/2/2e/Flag_of_the_Marshall_Islands.svg/1280px-Flag_of_the_Marshall_Islands.svg.png"}, {"id": "marshall-islands-alele-museum-and-public-library", "name": "Alele Museum and Public Library", "country": "Marshall Islands", "lat": 10.82963, "lng": 166.15743, "category": "Civic / cultural landmark", "photo": "https://upload.wikimedia.org/wikipedia/commons/thumb/2/2a/Alele_Museum_Aussenansicht.JPG/1280px-Alele_Museum_Aussenansicht.JPG"}, {"id": "mauritania-chinguetti-old-town", "name": "Chinguetti Old Town", "country": "Mauritania", "lat": 20.3962, "lng": -13.23417, "category": "Visit-worthy landmark", "photo": "https://upload.wikimedia.org/wikipedia/commons/thumb/c/c3/Chinguetti-Vue_Goblale_Vieille_ville.jpg/1280px-Chinguetti-Vue_Goblale_Vieille_ville.jpg"}, {"id": "mauritania-banc-darguin-national-park", "name": "Banc d’Arguin National Park", "country": "Mauritania", "lat": 20.3962, "lng": -13.23417, "category": "Natural landmark", "photo": "https://upload.wikimedia.org/wikipedia/commons/6/69/Bancdarguin_map_lg.jpg"}, {"id": "mauritania-saudi-mosque-nouakchott", "name": "Saudi Mosque, Nouakchott", "country": "Mauritania", "lat": 20.3962, "lng": -13.23417, "category": "Religious monument", "photo": "https://upload.wikimedia.org/wikipedia/commons/6/6f/Nouakchott.jpg"}, {"id": "mauritius-le-morne-brabant", "name": "Le Morne Brabant", "country": "Mauritius", "lat": -20.21686, "lng": 57.48865, "category": "Visit-worthy landmark", "photo": "https://upload.wikimedia.org/wikipedia/commons/thumb/1/18/Le_Morne_Peninsula_in_Mauritius_%2853697779236%29.jpg/1280px-Le_Morne_Peninsula_in_Mauritius_%2853697779236%29.jpg"}, {"id": "mauritius-aapravasi-ghat", "name": "Aapravasi Ghat", "country": "Mauritius", "lat": -20.15864, "lng": 57.50317, "category": "Visit-worthy landmark", "photo": "https://upload.wikimedia.org/wikipedia/commons/thumb/1/1b/Aapravasi_Ghat_Museum%2C_Mauritius_%2841%29.jpg/1280px-Aapravasi_Ghat_Museum%2C_Mauritius_%2841%29.jpg"}, {"id": "mauritius-ganga-talao-grand-bassin", "name": "Ganga Talao / Grand Bassin", "country": "Mauritius", "lat": -20.21686, "lng": 57.48865, "category": "Visit-worthy landmark", "photo": "https://upload.wikimedia.org/wikipedia/commons/thumb/7/70/Grand_Bassin%2C_Mauritius.jpg/1280px-Grand_Bassin%2C_Mauritius.jpg"}, {"id": "mexico-chichen-itza", "name": "Chichén Itzá", "country": "Mexico", "lat": 19.70444, "lng": -96.39009, "category": "Visit-worthy landmark", "photo": "https://upload.wikimedia.org/wikipedia/commons/thumb/5/51/Chichen_Itza_3.jpg/1280px-Chichen_Itza_3.jpg"}, {"id": "mexico-palacio-de-bellas-artes-mexico-city", "name": "Palacio de Bellas Artes, Mexico City", "country": "Mexico", "lat": 19.70444, "lng": -96.39009, "category": "Visit-worthy landmark", "photo": "https://upload.wikimedia.org/wikipedia/commons/thumb/9/97/Bellas_Artes_01.jpg/1280px-Bellas_Artes_01.jpg"}, {"id": "mexico-teotihuacan-pyramids", "name": "Teotihuacan Pyramids", "country": "Mexico", "lat": 19.70444, "lng": -96.39009, "category": "Archaeological site", "photo": "https://upload.wikimedia.org/wikipedia/commons/thumb/f/fd/15-07-Mexico-Vorauswahl-RalfR-WMA_0159.jpg/1280px-15-07-Mexico-Vorauswahl-RalfR-WMA_0159.jpg"}, {"id": "micronesia-nan-madol", "name": "Nan Madol", "country": "Micronesia", "lat": 6.92834, "lng": 158.245, "category": "Visit-worthy landmark", "photo": "https://upload.wikimedia.org/wikipedia/commons/thumb/c/c3/Nan_madol.jpg/1280px-Nan_madol.jpg"}, {"id": "micronesia-sokehs-rock", "name": "Sokehs Rock", "country": "Micronesia", "lat": 6.92834, "lng": 158.245, "category": "Natural landmark", "photo": "https://upload.wikimedia.org/wikipedia/commons/thumb/a/ae/Pohnpei-NW.jpg/1280px-Pohnpei-NW.jpg"}, {"id": "micronesia-lelu-ruins", "name": "Lelu Ruins", "country": "Micronesia", "lat": 6.92834, "lng": 158.245, "category": "Archaeological site", "photo": "https://upload.wikimedia.org/wikipedia/commons/c/c4/Kosrae.png"}, {"id": "moldova-orheiul-vechi", "name": "Orheiul Vechi", "country": "Moldova", "lat": 51.01926, "lng": 28.11426, "category": "Visit-worthy landmark", "photo": "https://upload.wikimedia.org/wikipedia/commons/thumb/2/27/Flag_of_Moldova.svg/1280px-Flag_of_Moldova.svg.png"}, {"id": "moldova-stephen-the-great-monument-chisinau", "name": "Stephen the Great Monument, Chișinău", "country": "Moldova", "lat": 51.01926, "lng": 28.11426, "category": "Civic / cultural landmark", "photo": "https://upload.wikimedia.org/wikipedia/commons/thumb/e/e2/Chisinau_Stefan_cel_Mare_monument.jpg/1280px-Chisinau_Stefan_cel_Mare_monument.jpg"}, {"id": "moldova-capriana-monastery", "name": "Capriana Monastery", "country": "Moldova", "lat": 51.01926, "lng": 28.11426, "category": "Religious monument", "photo": "https://upload.wikimedia.org/wikipedia/commons/thumb/5/5b/Monasterio_de_C%C4%83priana%2C_C%C4%83priana%2C_Moldavia%2C_2023-11-02%2C_DD_58-60_HDR.jpg/1280px-Monasterio_de_C%C4%83priana%2C_C%C4%83priana%2C_Moldavia%2C_2023-11-02%2C_DD_58-60_HDR.jpg"}, {"id": "monaco-prince-s-palace-of-monaco", "name": "Prince's Palace of Monaco", "country": "Monaco", "lat": 43.745, "lng": 7.395, "category": "Architectural landmark", "photo": "https://upload.wikimedia.org/wikipedia/commons/0/06/Albert_II_-_08.06.2025_-_Encontro_com_Sua_Alteza_o_Pr%C3%ADncipe_de_M%C3%B4naco%2C_Alberto_II_%2854574973880%29.jpg"}, {"id": "monaco-monte-carlo-casino", "name": "Monte Carlo Casino", "country": "Monaco", "lat": 43.745, "lng": 7.395, "category": "Civic / cultural landmark", "photo": "https://upload.wikimedia.org/wikipedia/commons/thumb/8/87/The_Casino%2C_Monte_Carlo_-_panoramio_cropped.jpg/1280px-The_Casino%2C_Monte_Carlo_-_panoramio_cropped.jpg"},